상호,주소,상권업종대분류명,상권업종중분류명,상권업종소분류명,경도,위도,도로명주소
영자's곱창,서울특별시 광진구 면목로 172 (중곡동) 1층,음식,한식,곱창 전골/구이,127.082832417071,37.5685026763955,서울특별시 광진구 면목로 172
맑은에스테틱,서울특별시 광진구 뚝섬로32길 33 (자양동) 1층,수리·개인,욕탕·신체관리,마사지/안마,127.066814204677,37.5340471437813,서울특별시 광진구 뚝섬로32길 33
썬더치킨,서울특별시 광진구 군자로 127 (군자동) 1층,음식,기타 간이,치킨,127.073597973058,37.5536623822352,서울특별시 광진구 군자로 127
더봄,서울특별시 광진구 면목로 7 (군자동) 1층,수리·개인,이용·미용,네일숍,127.075155396097,37.5549360616557,서울특별시 광진구 면목로 7
딘두오,서울특별시 광진구 천호대로103길 8 (중곡동),소매,섬유·의복·신발 소매,가발 소매업,127.075428926953,37.5593623573662,서울특별시 광진구 천호대로103길 8
에이치와이플러스,서울특별시 광진구 아차산로 355 (자양동),시설관리·임대,고용 알선,상용 인력 공급 및 인사관리 서비스업,127.082546387004,37.5373601422673,서울특별시 광진구 아차산로 355
제이엔,서울특별시 광진구 용마산로 29 (중곡동) 1층,소매,섬유·의복·신발 소매,기타 의류 소매업,127.087895536013,37.5561795020892,서울특별시 광진구 용마산로 29
러슬,서울특별시 광진구 자양로37길 63 (구의동) 3층,음식,비알코올 ,카페,127.085543420228,37.5486014905947,서울특별시 광진구 자양로37길 63
늘푸른강산,서울특별시 광진구 동일로70길 27 (중곡동),시설관리·임대,청소·방제,건축물 일반 청소업,127.0783886606,37.5644223622335,서울특별시 광진구 동일로70길 27
광진레츠,서울특별시 광진구 영화사로 15 (중곡동) 2층,과학·기술,전문 디자인,시각 디자인업,127.089311529733,37.5579384703687,서울특별시 광진구 영화사로 15
정코스메틱,서울특별시 광진구 아차산로36길 35 (자양동),소매,의약·화장품 소매,화장품 소매업,127.074086174836,37.5370688474876,서울특별시 광진구 아차산로36길 35
에이스원영어학원,서울특별시 광진구 뚝섬로 541 (자양동) 4층,교육,일반 교육,입시·교과학원,127.070345197386,37.5348949513078,서울특별시 광진구 뚝섬로 541
에이원부동산경매평생교육원,서울특별시 광진구 천호대로 562 (능동) 4층,교육,기타 교육,그 외 기타 교육기관,127.080342647343,37.5564813331518,서울특별시 광진구 천호대로 562
설레임,서울특별시 광진구 아차산로31길 30 (화양동) 1층,음식,한식,돼지고기 구이/찜,127.069937212035,37.5422353126568,서울특별시 광진구 아차산로31길 30
군자전자담배프라자,서울특별시 광진구 능동로40길 12 (중곡동) 1층,소매,담배 소매,담배/전자담배 소매업,127.080742341899,37.5580342516223,서울특별시 광진구 능동로40길 12
워커힐설비,서울특별시 광진구 아차산로 637 (광장동) 2층,수리·개인,기타 가정용품 수리,그 외 기타 개인/가정용품 수리업,127.107590529973,37.5513111458743,서울특별시 광진구 아차산로 637
롯데공인중개사사무소,서울특별시 광진구 구의로 7 (구의동) 1층,부동산,부동산 서비스,부동산 중개/대리업,127.089048898399,37.5385998725552,서울특별시 광진구 구의로 7
이삭고시원,서울특별시 광진구 능동로19길 36 (화양동),숙박,기타 숙박,기숙사/고시원,127.071818920462,37.5474491838954,서울특별시 광진구 능동로19길 36
토림인글로벌,서울특별시 광진구 뚝섬로 539 (자양동),과학·기술,기술 서비스,기타 엔지니어링 서비스업,127.070060786755,37.5350188593566,서울특별시 광진구 뚝섬로 539
론썸헤이드,서울특별시 광진구 천호대로 573 (중곡동) 2층,수리·개인,이용·미용,미용실,127.081813092887,37.5565558510547,서울특별시 광진구 천호대로 573
웰빙힐링센타,서울특별시 광진구 자양로5길 33 (자양동) 2층,수리·개인,욕탕·신체관리,마사지/안마,127.084118864686,37.5309117942692,서울특별시 광진구 자양로5길 33
파고라,서울특별시 광진구 용마산로1길 113 (중곡동),교육,기타 교육,기타 예술/스포츠 교육기관,127.082478812527,37.5567232153159,서울특별시 광진구 용마산로1길 113
실버스톤,서울특별시 광진구 광나루로56길 85 (구의동) 36층,과학·기술,본사·경영 컨설팅,경영 컨설팅업,127.095680669092,37.53571340911,서울특별시 광진구 광나루로56길 85
에이비에이캥거루,서울특별시 광진구 아차산로30길 36 (자양동) 1층,교육,기타 교육,그 외 기타 교육기관,127.066702253042,37.5393985083357,서울특별시 광진구 아차산로30길 36
오사이초밥,서울특별시 광진구 군자로 14 (화양동) 1층,음식,일식,일식 회/초밥,127.07150266554,37.5446624499293,서울특별시 광진구 군자로 14
인디고플레이스,서울특별시 광진구 능동로 154 (화양동),음식,비알코올 ,카페,127.073088363325,37.5445487607629,서울특별시 광진구 능동로 154
한국웃음놀이치료연구회,서울특별시 광진구 능동로36길 166 (능동),교육,기타 교육,기타 기술/직업 훈련학원,127.087471087843,37.5529324396501,서울특별시 광진구 능동로36길 166
남수푸드,서울특별시 광진구 광나루로37길 8 (구의동) 1층,음식,한식,횟집,127.087654640128,37.5453019511433,서울특별시 광진구 광나루로37길 8
건축사사무소그리드,서울특별시 광진구 천호대로124길 66 (능동) 2층,과학·기술,기술 서비스,건축 설계 및 관련 서비스업,127.085890860086,37.5516587448314,서울특별시 광진구 천호대로124길 66
태원건축인테리어,서울특별시 광진구 긴고랑로 22 (중곡동),과학·기술,전문 디자인,인테리어 디자인업,127.078684932002,37.5633434160955,서울특별시 광진구 긴고랑로 22
살롱드발레,서울특별시 광진구 광나루로52길 88 (구의동) 1층,교육,기타 교육,기타 예술/스포츠 교육기관,127.091212405669,37.5393463955672,서울특별시 광진구 광나루로52길 88
닛코리,서울특별시 광진구 아차산로 200 (자양동) 3층,음식,일식,일식 회/초밥,127.065651952175,37.5410481373377,서울특별시 광진구 아차산로 200
은하수광고기획,서울특별시 광진구 긴고랑로22길 4 (중곡동) 지층,과학·기술,광고,옥외/전시 광고 대행업,127.084216635443,37.560845494921,서울특별시 광진구 긴고랑로22길 4
크레버스영재교육센터광진제1지점,서울특별시 광진구 광나루로 603 (광장동) 3층,교육,일반 교육,입시·교과학원,127.095492110877,37.5419562667354,서울특별시 광진구 광나루로 603
드림부동산공인중개사사무소,서울특별시 광진구 아차산로 224 (자양동) 1층,부동산,부동산 서비스,부동산 중개/대리업,127.068068261983,37.5405626427955,서울특별시 광진구 아차산로 224
큐라운지,서울특별시 광진구 아차산로78길 110 (광장동) 8층,과학·기술,인쇄·제품제작,명함/간판/광고물 제작,127.110164098632,37.5499789896385,서울특별시 광진구 아차산로78길 110
요거트월드,서울특별시 광진구 자양번영로13길 3 (자양동) 1층,음식,기타 간이,아이스크림/빙수,127.076707273872,37.5373957277411,서울특별시 광진구 자양번영로13길 3
열린밥상,서울특별시 광진구 자양로 247 (구의동) 1층,음식,한식,백반/한정식,127.088824812242,37.5486448789535,서울특별시 광진구 자양로 247
다모아호프,서울특별시 광진구 뚝섬로 476 (자양동) 1층,음식,주점,요리 주점,127.063163187827,37.5364690980475,서울특별시 광진구 뚝섬로 476
예일스터디카페,서울특별시 광진구 군자로 69 (군자동) 2층,예술·스포츠,도서관·사적지,독서실/스터디 카페,127.07059507225,37.5494038474639,서울특별시 광진구 군자로 69
로프커피,서울특별시 광진구 동일로 304 (군자동) 1층,음식,비알코올 ,카페,127.073461978063,37.5582476577619,서울특별시 광진구 동일로 304
크린업24화양점,서울특별시 광진구 아차산로23길 67 (화양동),수리·개인,세탁,세탁소,127.067322513586,37.5450169584286,서울특별시 광진구 아차산로23길 67
우림이엔지,서울특별시 광진구 강변역로4길 68 (구의동),과학·기술,기술 서비스,건축 설계 및 관련 서비스업,127.0925842524,37.532590030538,서울특별시 광진구 강변역로4길 68
크레송,서울특별시 광진구 능동로 92 (자양동) 4층,소매,섬유·의복·신발 소매,여성 의류 소매업,127.07119956705,37.538992451652,서울특별시 광진구 능동로 92
어반레지던스,서울특별시 광진구 자양로 164 (구의동) 4층,숙박,기타 숙박,기숙사/고시원,127.084364718845,37.5422669716667,서울특별시 광진구 자양로 164
레스티오도서관점,서울특별시 광진구 능동로 120 (화양동) 3층,음식,비알코올 ,카페,127.074695272526,37.5390559369817,서울특별시 광진구 능동로 120
룩앤룩안경원스타시티점,서울특별시 광진구 아차산로 262 (자양동) 1층,소매,안경·정밀기기 소매,안경렌즈 소매업,127.072944230258,37.5369968145663,서울특별시 광진구 아차산로 262
용정성일초두부,서울특별시 광진구 아차산로26길 42 (자양동) 1층,음식,한식,백반/한정식,127.065319754495,37.5395587734861,서울특별시 광진구 아차산로26길 42
에스씨푸드,서울특별시 광진구 능동로13길 69 (화양동) 2층,음식,한식,백반/한정식,127.069046360273,37.5447151940321,서울특별시 광진구 능동로13길 69
팔자좀피자,서울특별시 광진구 뚝섬로 509-1 (자양동) 1층,음식,기타 간이,피자,127.067007388537,37.5357967117582,서울특별시 광진구 뚝섬로 509-1
미각의발견,서울특별시 광진구 자양로50길 37 (구의동) 1층,음식,한식,돼지고기 구이/찜,127.094302175452,37.5523903423431,서울특별시 광진구 자양로50길 37
블링안나,서울특별시 광진구 동일로46길 23-11 (군자동),소매,섬유·의복·신발 소매,여성 의류 소매업,127.071298687492,37.5538065083789,서울특별시 광진구 동일로46길 23-11
디와겐,서울특별시 광진구 자양번영로 72 (자양동) 1층,수리·개인,자동차 수리·세차,자동차 세차장,127.076680346884,37.5359087801904,서울특별시 광진구 자양번영로 72
비바체,서울특별시 광진구 광나루로52길 11 (구의동) 1층,음식,비알코올 ,카페,127.094789510288,37.5411038928542,서울특별시 광진구 광나루로52길 11
신사동,서울특별시 광진구 답십리로 372 (중곡동) 1층,음식,주점,요리 주점,127.081811727936,37.5714231485861,서울특별시 광진구 답십리로 372
산과바다,서울특별시 광진구 자양로 322 (구의동) 1층,음식,한식,횟집,127.094034671706,37.5539200774921,서울특별시 광진구 자양로 322
온도계,서울특별시 광진구 자양로43길 60 (중곡동) 1층,음식,한식,돼지고기 구이/찜,127.090092915123,37.5532500203011,서울특별시 광진구 자양로43길 60
파워부동산공인중개사무소,서울특별시 광진구 뚝섬로 508 (자양동) 1층,부동산,부동산 서비스,부동산 중개/대리업,127.066568167891,37.5356310514215,서울특별시 광진구 뚝섬로 508
에스헤어,서울특별시 광진구 뚝섬로56길 41 (자양동) 1층,수리·개인,이용·미용,미용실,127.082787927936,37.5296489996824,서울특별시 광진구 뚝섬로56길 41
짱노래연습장,서울특별시 광진구 동일로18길 51 (자양동) B1층,예술·스포츠,유원지·오락,노래방,127.065673313462,37.5393363085508,서울특별시 광진구 동일로18길 51
비쥬리아,서울특별시 광진구 긴고랑로9길 22 (중곡동) 1층,소매,섬유·의복·신발 소매,액세서리/잡화 소매업,127.081331853443,37.5644092590133,서울특별시 광진구 긴고랑로9길 22
장수카페,서울특별시 광진구 군자로 140 (군자동) 1층,음식,비알코올 ,카페,127.074995443774,37.5541418846868,서울특별시 광진구 군자로 140
샤론프린트,서울특별시 광진구 동일로 388 (중곡동),과학·기술,전문 디자인,시각 디자인업,127.077282232401,37.5651075273418,서울특별시 광진구 동일로 388
풍년상회,서울특별시 광진구 아차산로53길 53 (구의동) 1층,음식,한식,돼지고기 구이/찜,127.085608206768,37.5395914702435,서울특별시 광진구 아차산로53길 53
디테일비쉐어하우스,서울특별시 광진구 동일로46길 23-11 (군자동) 5층,숙박,기타 숙박,기숙사/고시원,127.071298687492,37.5538065083789,서울특별시 광진구 동일로46길 23-11
온유안경,서울특별시 광진구 능동로 373 (중곡동),소매,안경·정밀기기 소매,안경렌즈 소매업,127.082246776076,37.5627224025568,서울특별시 광진구 능동로 373
디딤온누리약국,서울특별시 광진구 천호대로 653 (중곡동) 1층,소매,의약·화장품 소매,약국,127.089633975458,37.5528319991406,서울특별시 광진구 천호대로 653
속옷짱,서울특별시 광진구 영화사로 4 (중곡동) 1층,소매,섬유·의복·신발 소매,기타 의류 소매업,127.088083001036,37.5584425866137,서울특별시 광진구 영화사로 4
진씨태극권정진무관,서울특별시 광진구 용마산로3길 99 (중곡동) 지층,교육,기타 교육,태권도/무술학원,127.082789617847,37.5572212077557,서울특별시 광진구 용마산로3길 99
브라운파스타,서울특별시 광진구 동일로 158 (화양동) 2층,음식,서양식,파스타/스테이크,127.066571966079,37.5462184357128,서울특별시 광진구 동일로 158
맘스터치군자역점,서울특별시 광진구 능동로 300 (능동) 1층,음식,기타 간이,버거,127.079426297424,37.5564471604895,서울특별시 광진구 능동로 300
헤어웨이구의,서울특별시 광진구 아차산로 481 (구의동) 2층,수리·개인,이용·미용,미용실,127.094938345104,37.5409608651612,서울특별시 광진구 아차산로 481
상하세라믹,서울특별시 광진구 자양로 241 (구의동) 1층,소매,철물·건설자재 소매,건설/건축자재 소매업,127.088400513351,37.54817305707,서울특별시 광진구 자양로 241
다원인테리어,서울특별시 광진구 긴고랑로2길 13 (중곡동) 2층,과학·기술,전문 디자인,인테리어 디자인업,127.076941722609,37.5633478207065,서울특별시 광진구 긴고랑로2길 13
에이민스튜디오,서울특별시 광진구 동일로18길 11 (자양동),과학·기술,사진 촬영,사진촬영업,127.0635483888,37.5400493282598,서울특별시 광진구 동일로18길 11
와이피,서울특별시 광진구 동일로24길 18-1 (화양동) B1층,과학·기술,사진 촬영,사진촬영업,127.066173221883,37.543710361721,서울특별시 광진구 동일로24길 18-1
잘듣는정신건강의학과의원,서울특별시 광진구 광나루로 369 (군자동) 2층,보건의료,의원,신경/정신과 의원,127.07103693168,37.5484522110591,서울특별시 광진구 광나루로 369
골든네일,서울특별시 광진구 동일로22길 80 (화양동) 3층,수리·개인,이용·미용,네일숍,127.068501461957,37.5412148179373,서울특별시 광진구 동일로22길 80
파라곤마트,서울특별시 광진구 광나루로 361 (군자동) 1층,소매,종합 소매,슈퍼마켓,127.069724520217,37.5484238574589,서울특별시 광진구 광나루로 361
주현대종합인테리어,서울특별시 광진구 동일로38길 3 (군자동) 1층,과학·기술,전문 디자인,인테리어 디자인업,127.069696195181,37.5516133522638,서울특별시 광진구 동일로38길 3
해법영어교실용마영어교습소,서울특별시 광진구 용마산로3길 98 (중곡동) 1층,교육,일반 교육,입시·교과학원,127.082969147083,37.5573487492997,서울특별시 광진구 용마산로3길 98
동대문엽기떡볶이,서울특별시 광진구 자양로 109 (자양동) 1층,음식,기타 간이,김밥/만두/분식,127.083077712509,37.5374003111359,서울특별시 광진구 자양로 109
에그허그,서울특별시 광진구 천호대로143길 8-5 (광장동) 1층,음식,비알코올 ,카페,127.10326249448,37.5460432392924,서울특별시 광진구 천호대로143길 8-5
광진MJ모터스,서울특별시 광진구 자양로 222 (구의동),수리·개인,자동차 수리·세차,자동차 정비소,127.087377361141,37.5466964390975,서울특별시 광진구 자양로 222
유플러스빌건강식품,서울특별시 광진구 뚝섬로 663 (자양동) 1층,소매,식료품 소매,건강보조식품 소매업,127.083146874342,37.5317512428549,서울특별시 광진구 뚝섬로 663
버드뷰커뮤니케이션,서울특별시 광진구 아차산로78길 72 (광장동),과학·기술,광고,광고물 설계/제작업,127.110408308239,37.5513324090047,서울특별시 광진구 아차산로78길 72
파인드민,서울특별시 광진구 능동로3길 77 (자양동),과학·기술,전문 디자인,시각 디자인업,127.063188885181,37.5344149032984,서울특별시 광진구 능동로3길 77
케이더블유이노베이션,서울특별시 광진구 군자로 149 (군자동),시설관리·임대,가정용품 대여,만화방,127.075655673146,37.554750758779,서울특별시 광진구 군자로 149
지금이밤,서울특별시 광진구 능동로 27 (자양동) 2층,음식,주점,요리 주점,127.067517893737,37.533872491831,서울특별시 광진구 능동로 27
릴앤뷰티,서울특별시 광진구 능동로53길 28 (중곡동) 1층,수리·개인,이용·미용,피부 관리실,127.082942409106,37.5669176855146,서울특별시 광진구 능동로53길 28
동방생고기,서울특별시 광진구 아차산로31길 28 (화양동) 2층,음식,한식,돼지고기 구이/찜,127.06987044204,37.5421446815925,서울특별시 광진구 아차산로31길 28
히트노래연습장,서울특별시 광진구 자양로43길 42 (구의동),예술·스포츠,유원지·오락,노래방,127.090429747256,37.5525407851166,서울특별시 광진구 자양로43길 42
성수탑공인중개사사무소,서울특별시 광진구 뚝섬로24길 3 (자양동) 1층,부동산,부동산 서비스,부동산 중개/대리업,127.063742792137,37.5362664528257,서울특별시 광진구 뚝섬로24길 3
약손명가에스테틱,서울특별시 광진구 아차산로 229 (화양동) 4층,수리·개인,이용·미용,피부 관리실,127.06899348461,37.5407771828983,서울특별시 광진구 아차산로 229
온더코너,서울특별시 광진구 아차산로21길 44 (화양동) 1층,음식,비알코올 ,카페,127.065911850635,37.5437983995317,서울특별시 광진구 아차산로21길 44
내가닭도리탕이다,서울특별시 광진구 뚝섬로55길 10 (자양동) 1층,음식,한식,백반/한정식,127.082533526006,37.5319447112834,서울특별시 광진구 뚝섬로55길 10
수심,서울특별시 광진구 면목로 33-4 (군자동) 1층,음식,일식,일식 회/초밥,127.076212782362,37.557296079383,서울특별시 광진구 면목로 33-4
에스게러지,서울특별시 광진구 자양로28길 95 (구의동) 1층,소매,자동차 부품 소매,자동차 부품 소매업,127.08960022066,37.5416496836048,서울특별시 광진구 자양로28길 95
어라운드스터디카페,서울특별시 광진구 뚝섬로 665 (자양동) 지층,예술·스포츠,도서관·사적지,독서실/스터디 카페,127.083338870334,37.5317797649063,서울특별시 광진구 뚝섬로 665
박과장의조은회사,서울특별시 광진구 아차산로 345 (자양동) 1층,음식,일식,일식 회/초밥,127.081435607686,37.5375136967709,서울특별시 광진구 아차산로 345
골프원정대행복투어,서울특별시 광진구 능동로 275-1 (군자동),시설관리·임대,여행사·보조,기타 여행 보조/예약 서비스업,127.077761596664,37.5546861322398,서울특별시 광진구 능동로 275-1
그리네,서울특별시 광진구 동일로22길 117-7 (화양동) 2층,음식,기타 간이,빵/도넛,127.070541132783,37.5409876060587,서울특별시 광진구 동일로22길 117-7
래빗홀버거컴퍼니,서울특별시 광진구 광나루로 424 (화양동),음식,기타 간이,버거,127.076510194155,37.5460352750599,서울특별시 광진구 광나루로 424
대공원사진관,서울특별시 광진구 능동로34길 123 (능동),과학·기술,사진 촬영,사진촬영업,127.085802602286,37.5533250058016,서울특별시 광진구 능동로34길 123
즐거운,서울특별시 광진구 동일로18길 70 (자양동),예술·스포츠,유원지·오락,노래방,127.06654017404,37.5387845120803,서울특별시 광진구 동일로18길 70
담율노동법률컨설팅,서울특별시 광진구 아차산로 378 (자양동) 3층,과학·기술,법무관련 ,공인노무사,127.084717748951,37.53653000189,서울특별시 광진구 아차산로 378
서다스터디카페,서울특별시 광진구 뚝섬로 672 (자양동) 2층,예술·스포츠,도서관·사적지,독서실/스터디 카페,127.084176498696,37.5317502214728,서울특별시 광진구 뚝섬로 672
드림오피스,서울특별시 광진구 자양로 150 (구의동) 1층,소매,오락용품 소매,문구/회화용품 소매업,127.08380386432,37.5409380742969,서울특별시 광진구 자양로 150
9월에헤어,서울특별시 광진구 천호대로107길 54 (중곡동) 1층,수리·개인,이용·미용,미용실,127.079631167763,37.5600349354663,서울특별시 광진구 천호대로107길 54
서울강변작심독서실,서울특별시 광진구 광나루로56길 29 (구의동) 2층,예술·스포츠,도서관·사적지,독서실/스터디 카페,127.096514325742,37.5369542342159,서울특별시 광진구 광나루로56길 29
다원전기조명,서울특별시 광진구 면목로 191 (중곡동),소매,기타 생활용품 소매,전기용품/조명장치 소매업,127.083093410807,37.5702977897708,서울특별시 광진구 면목로 191
함일상회,서울특별시 광진구 자양번영로5길 8 (자양동) 지층,과학·기술,사진 촬영,사진촬영업,127.074968974425,37.532471385672,서울특별시 광진구 자양번영로5길 8
스위트M,서울특별시 광진구 군자로7길 26 (화양동),수리·개인,기타 가정용품 수리,의류/이불 수선업,127.068999193083,37.5457780622672,서울특별시 광진구 군자로7길 26
씨투글로벌즈,서울특별시 광진구 동일로 416 (중곡동) 2층,소매,자동차 부품 소매,자동차 부품 소매업,127.078522476665,37.5673428038386,서울특별시 광진구 동일로 416
에이치오토,서울특별시 광진구 구천면로 13 (광장동) 1층,수리·개인,자동차 수리·세차,자동차 정비소,127.107271034171,37.5467854453271,서울특별시 광진구 구천면로 13
준드라이빙운전면허,서울특별시 광진구 아차산로 358 (자양동) 3층,교육,기타 교육,운전학원,127.082375517262,37.5365298458103,서울특별시 광진구 아차산로 358
에드에이치,서울특별시 광진구 자양번영로13길 22 (자양동),과학·기술,광고,광고 대행업,127.075616108648,37.5377926649546,서울특별시 광진구 자양번영로13길 22
렛츠코인노래연습장,서울특별시 광진구 자양로 277 (구의동) 2층,예술·스포츠,유원지·오락,노래방,127.091084698253,37.5507977889078,서울특별시 광진구 자양로 277
라청담미용실,서울특별시 광진구 능동로 288 (능동) 2층,수리·개인,이용·미용,미용실,127.078782330227,37.5554329617796,서울특별시 광진구 능동로 288
상경침장아르페지오,서울특별시 광진구 긴고랑로36길 25 (중곡동) 2층,소매,섬유·의복·신발 소매,침구류/커튼 소매업,127.089887507586,37.5580420271975,서울특별시 광진구 긴고랑로36길 25
안티영어교육,서울특별시 광진구 아차산로 491 (광장동) 4층,교육,일반 교육,입시·교과학원,127.09598061069,37.5417978179664,서울특별시 광진구 아차산로 491
커브스자양클럽,서울특별시 광진구 뚝섬로 558 (자양동) 4층,예술·스포츠,스포츠 서비스,헬스장,127.071848218926,37.534131868626,서울특별시 광진구 뚝섬로 558
노유웍스,서울특별시 광진구 뚝섬로 476-14 (자양동),과학·기술,사진 촬영,사진촬영업,127.062301858175,37.536579398502,서울특별시 광진구 뚝섬로 476-14
엔터컴,서울특별시 광진구 광나루로56길 85 (구의동) 7층,소매,가전·통신 소매,컴퓨터/소프트웨어 소매업,127.095680669092,37.53571340911,서울특별시 광진구 광나루로56길 85
동서가구,서울특별시 광진구 천호대로 512 (군자동) 2층,소매,가구 소매,가구 소매업,127.075293379462,37.5584242045285,서울특별시 광진구 천호대로 512
수지헤어뉴스,서울특별시 광진구 능동로3길 54 (자양동),수리·개인,이용·미용,미용실,127.064503860773,37.5342180854912,서울특별시 광진구 능동로3길 54
엔피엔피,서울특별시 광진구 천호대로102길 20 (군자동) 1층,소매,가전·통신 소매,핸드폰 소매업,127.073757455039,37.5581508607483,서울특별시 광진구 천호대로102길 20
씨유군자동일로점,서울특별시 광진구 동일로32길 18 (군자동) 1층,소매,종합 소매,편의점,127.069115145981,37.5491939582668,서울특별시 광진구 동일로32길 18
힐,서울특별시 광진구 뚝섬로66길 7 (구의동),음식,비알코올 ,카페,127.090308640812,37.533635767209,서울특별시 광진구 뚝섬로66길 7
뽑튜브,서울특별시 광진구 동일로30길 42 (화양동) 1층,예술·스포츠,유원지·오락,기타 오락장,127.069590069159,37.5474046109475,서울특별시 광진구 동일로30길 42
파란문,서울특별시 광진구 광나루로56길 85 (구의동) 1층,소매,오락용품 소매,장난감 소매업,127.095680669092,37.53571340911,서울특별시 광진구 광나루로56길 85
마우로아,서울특별시 광진구 능동로 320 (중곡동) 1층,음식,서양식,경양식,127.080287877899,37.5581748802993,서울특별시 광진구 능동로 320
동아공인중개사사무소,서울특별시 광진구 긴고랑로13길 81 (중곡동) 1층,부동산,부동산 서비스,부동산 중개/대리업,127.083439929982,37.5660385214173,서울특별시 광진구 긴고랑로13길 81
동명공인중개사사무소,서울특별시 광진구 동일로38길 3 (군자동) 1층,부동산,부동산 서비스,부동산 중개/대리업,127.069696195181,37.5516133522638,서울특별시 광진구 동일로38길 3
파니오락실,서울특별시 광진구 아차산로 241 (화양동) 4층,예술·스포츠,유원지·오락,전자 게임장,127.070128531305,37.5404977898043,서울특별시 광진구 아차산로 241
중곡기아오토큐,서울특별시 광진구 면목로 194 (중곡동) 2층,수리·개인,자동차 수리·세차,자동차 정비소,127.083442317679,37.5704626878265,서울특별시 광진구 면목로 194
성윤공조시스템,서울특별시 광진구 뚝섬로52나길 6-9 (자양동) 2층,소매,기타 상품 소매,그 외 기타 상품 전문 소매업,127.079474783875,37.530416148973,서울특별시 광진구 뚝섬로52나길 6-9
호탁구교실,서울특별시 광진구 뚝섬로41길 8 (자양동),예술·스포츠,스포츠 서비스,탁구장,127.075086710612,37.5339320139376,서울특별시 광진구 뚝섬로41길 8
현대인의손맛,서울특별시 광진구 자양로 206-1 (구의동) 1층,음식,한식,백반/한정식,127.086145622676,37.5456236714233,서울특별시 광진구 자양로 206-1
줄리앤몰리,서울특별시 광진구 뚝섬로59길 67 (자양동) 1층,음식,비알코올 ,카페,127.083063896877,37.5348322021359,서울특별시 광진구 뚝섬로59길 67
왕십리포차,서울특별시 광진구 자양로50길 6 (구의동) 1층,음식,주점,일반 유흥 주점,127.092588295275,37.5518635840273,서울특별시 광진구 자양로50길 6
퀸,서울특별시 광진구 능동로 411 (중곡동) 2층,소매,의약·화장품 소매,화장품 소매업,127.083996964878,37.5658446139652,서울특별시 광진구 능동로 411
혼다모터싸이클바이크닥터조,서울특별시 광진구 아차산로 337 (자양동) 1층,수리·개인,모터사이클 수리,모터사이클 수리업,127.080349444182,37.5375052429887,서울특별시 광진구 아차산로 337
대풍농산중곡동지점,서울특별시 광진구 용마산로 75 (중곡동) 1층,소매,식료품 소매,곡물/곡분 소매업,127.087255397359,37.5604094910548,서울특별시 광진구 용마산로 75
선주카페,서울특별시 광진구 강변북로 2230 (자양동),음식,비알코올 ,카페,127.067800920131,37.5284053347663,서울특별시 광진구 강변북로 2230
피자샵자양,서울특별시 광진구 아차산로 334-1 (자양동) 1층,음식,기타 간이,피자,127.079832755197,37.537194860044,서울특별시 광진구 아차산로 334-1
밍크뮤,서울특별시 광진구 능동로 90 (자양동) 8층,소매,섬유·의복·신발 소매,기타 의류 소매업,127.070902015585,37.53835036397,서울특별시 광진구 능동로 90
수포차,서울특별시 광진구 능동로36길 55 (능동) 1층,음식,주점,일반 유흥 주점,127.082121703574,37.5553868853703,서울특별시 광진구 능동로36길 55
오색무지개노래연습장,서울특별시 광진구 면목로 191 (중곡동) 지층,예술·스포츠,유원지·오락,노래방,127.083093410807,37.5702977897708,서울특별시 광진구 면목로 191
광수육회,서울특별시 광진구 면목로13길 3 (중곡동) 1층,음식,한식,소고기 구이/찜,127.082467117911,37.5687521313755,서울특별시 광진구 면목로13길 3
평강부동산중개사무소,서울특별시 광진구 구의강변로 45 (구의동) 1층,부동산,부동산 서비스,부동산 중개/대리업,127.091289265139,37.5348777610673,서울특별시 광진구 구의강변로 45
사이다,서울특별시 광진구 용마산로5길 78 (중곡동),소매,섬유·의복·신발 소매,여성 의류 소매업,127.083331628893,37.5573245326316,서울특별시 광진구 용마산로5길 78
미장원607,서울특별시 광진구 뚝섬로 614 (자양동) 1층,수리·개인,이용·미용,미용실,127.077844027629,37.5323767339154,서울특별시 광진구 뚝섬로 614
닥터모락,서울특별시 광진구 아차산로 226 (자양동) 6층,수리·개인,이용·미용,피부 관리실,127.068398067585,37.5404300874177,서울특별시 광진구 아차산로 226
드림휘트니스,서울특별시 광진구 능동로24길 37 (능동) 1층,예술·스포츠,스포츠 서비스,헬스장,127.078809496672,37.5523065292029,서울특별시 광진구 능동로24길 37
뽀빠이우렁추어탕,서울특별시 광진구 자양번영로 12 (자양동) 1층,음식,한식,국/탕/찌개류,127.075194309369,37.5307160963747,서울특별시 광진구 자양번영로 12
동광인테리어,서울특별시 광진구 뚝섬로45길 28 (자양동),과학·기술,전문 디자인,인테리어 디자인업,127.078110560722,37.5337033633246,서울특별시 광진구 뚝섬로45길 28
평생나눔사업협동조합,서울특별시 광진구 강변역로4길 10 (구의동),과학·기술,인쇄·제품제작,명함/간판/광고물 제작,127.093388186348,37.5353444204635,서울특별시 광진구 강변역로4길 10
링키홈아차산,서울특별시 광진구 자양로 324 (구의동) 2층,교육,기타 교육,외국어학원,127.094180044321,37.5540653610524,서울특별시 광진구 자양로 324
오늘도좋은날,서울특별시 광진구 동일로70길 47 (중곡동) 1층,음식,주점,요리 주점,127.079559430392,37.5640260238418,서울특별시 광진구 동일로70길 47
메케니멀모터스,서울특별시 광진구 뚝섬로 710-1 (자양동) 1층,소매,모터사이클 소매,모터사이클 및 부품 소매업,127.088140151041,37.5333126847846,서울특별시 광진구 뚝섬로 710-1
롯데건대스타시티슈스파,서울특별시 광진구 능동로 92 (자양동) 2층,소매,섬유·의복·신발 소매,신발 소매업,127.07119956705,37.538992451652,서울특별시 광진구 능동로 92
지유에이건축사사무소,서울특별시 광진구 능동로36길 109 (능동) 3층,과학·기술,기술 서비스,건축 설계 및 관련 서비스업,127.084907017525,37.5543722974841,서울특별시 광진구 능동로36길 109
제이와이컨설팅,서울특별시 광진구 아차산로49길 41-11 (구의동),과학·기술,본사·경영 컨설팅,경영 컨설팅업,127.083929065784,37.5390288138825,서울특별시 광진구 아차산로49길 41-11
도프존,서울특별시 광진구 능동로4길 78 (자양동) 1층,소매,오락용품 소매,자전거 소매업,127.070458033635,37.5312736070398,서울특별시 광진구 능동로4길 78
리하이,서울특별시 광진구 아차산로 444 (구의동) 1층,음식,중식,중국집,127.091935053723,37.5385410067184,서울특별시 광진구 아차산로 444
길조텔레콤,서울특별시 광진구 광나루로56길 85 (구의동) 6층,소매,가전·통신 소매,핸드폰 소매업,127.095680669092,37.53571340911,서울특별시 광진구 광나루로56길 85
웰빙,서울특별시 광진구 능동로 343 (중곡동) 2층,수리·개인,욕탕·신체관리,마사지/안마,127.080863348097,37.5601616708748,서울특별시 광진구 능동로 343
이청우행정사사무소,서울특별시 광진구 아차산로 378 (자양동) 3층,과학·기술,법무관련 ,기타 법무관련 서비스업,127.084717748951,37.53653000189,서울특별시 광진구 아차산로 378
그루스터디센터구의,서울특별시 광진구 광나루로54길 32 (구의동) 6층,예술·스포츠,도서관·사적지,독서실/스터디 카페,127.095092197754,37.5394662956019,서울특별시 광진구 광나루로54길 32
그린슈퍼,서울특별시 광진구 용마산로28가길 16 (중곡동),소매,종합 소매,슈퍼마켓,127.08694073941,37.5685705641455,서울특별시 광진구 용마산로28가길 16
커피에반하다강변역점,서울특별시 광진구 광나루로56길 29 (구의동) 1층,음식,비알코올 ,카페,127.096514325742,37.5369542342159,서울특별시 광진구 광나루로56길 29
이삭,서울특별시 광진구 자양로3길 59 (자양동) 1층,음식,기타 간이,피자,127.08345649876,37.5295640848499,서울특별시 광진구 자양로3길 59
포커스,서울특별시 광진구 능동로 92 (자양동) 5층,소매,섬유·의복·신발 소매,여성 의류 소매업,127.07119956705,37.538992451652,서울특별시 광진구 능동로 92
수헤어,서울특별시 광진구 동일로78길 39 (중곡동) 1층,수리·개인,이용·미용,미용실,127.081582139464,37.5689164491271,서울특별시 광진구 동일로78길 39
씨유구의지너스점,서울특별시 광진구 강변역로4길 10 (구의동),소매,종합 소매,편의점,127.093388186348,37.5353444204635,서울특별시 광진구 강변역로4길 10
지리공인중개사사무소,서울특별시 광진구 천호대로112길 17 (능동) 1층,부동산,부동산 서비스,부동산 중개/대리업,127.081375340664,37.555336028256,서울특별시 광진구 천호대로112길 17
하이드로플러스,서울특별시 광진구 아차산로78길 75 (광장동) 5층,소매,가전·통신 소매,가전제품 소매업,127.110971130975,37.5515889428079,서울특별시 광진구 아차산로78길 75
비에이치라이프,서울특별시 광진구 광나루로20길 36-17 (화양동),과학·기술,본사·경영 컨설팅,경영 컨설팅업,127.073657525349,37.5451929736063,서울특별시 광진구 광나루로20길 36-17
피아이컨설팅,서울특별시 광진구 자양로 187-1 (구의동),과학·기술,본사·경영 컨설팅,경영 컨설팅업,127.084496135573,37.5444755686075,서울특별시 광진구 자양로 187-1
세경마리나,서울특별시 광진구 자양로 86 (자양동) 6층,예술·스포츠,유원지·오락,수상/해양 레저업,127.0844152753,37.5353562877659,서울특별시 광진구 자양로 86
브라이트바버샵,서울특별시 광진구 능동로 69 (자양동) 1층,수리·개인,이용·미용,미용실,127.069076044466,37.5377773311572,서울특별시 광진구 능동로 69
그레이하우스,서울특별시 광진구 광나루로30다길 11 (구의동),과학·기술,전문 디자인,패션/섬유/기타 전문 디자인업,127.082169671676,37.5431690039063,서울특별시 광진구 광나루로30다길 11
블루피쉬,서울특별시 광진구 능동로 391 (중곡동) 1층,소매,섬유·의복·신발 소매,기타 의류 소매업,127.08306597899,37.5642245093455,서울특별시 광진구 능동로 391
슈퍼스타코인노래연습장,서울특별시 광진구 아차산로29길 25 (화양동) 지층,예술·스포츠,유원지·오락,노래방,127.06847983458,37.5420436146633,서울특별시 광진구 아차산로29길 25
일감문화사,서울특별시 광진구 광나루로24길 12 (화양동) 1층,시설관리·임대,사무 지원,복사업,127.076162750001,37.5457622418315,서울특별시 광진구 광나루로24길 12
사거리식당,서울특별시 광진구 아차산로33길 43 (화양동) 1층,음식,주점,요리 주점,127.070605125697,37.5422135399029,서울특별시 광진구 아차산로33길 43
르꼬끄스포르티브롯데스타시티,서울특별시 광진구 능동로 92 (자양동) 7층,소매,섬유·의복·신발 소매,기타 의류 소매업,127.07119956705,37.538992451652,서울특별시 광진구 능동로 92
성심공인중개사사무소,서울특별시 광진구 자양로18길 12 (구의동) 1층,부동산,부동산 서비스,부동산 중개/대리업,127.084095769735,37.5374262326597,서울특별시 광진구 자양로18길 12
부동산비밀노트,서울특별시 광진구 천호대로101길 27-1 (중곡동),과학·기술,광고,광고 대행업,127.074962081236,37.5605030329767,서울특별시 광진구 천호대로101길 27-1
365청소관리,서울특별시 광진구 자양로32길 88 (구의동) 1층,시설관리·임대,청소·방제,건축물 일반 청소업,127.090003027308,37.5438873991141,서울특별시 광진구 자양로32길 88
럭키네일,서울특별시 광진구 광나루로52길 106 (구의동) 지층,수리·개인,이용·미용,네일숍,127.090218808611,37.5391675446659,서울특별시 광진구 광나루로52길 106
콴차이,서울특별시 광진구 자양로18길 17 (구의동) 2층,음식,중식,중국집,127.084476597214,37.53774455434,서울특별시 광진구 자양로18길 17
현지실사세상,서울특별시 광진구 면목로 82-1 (중곡동) 1층,과학·기술,인쇄·제품제작,명함/간판/광고물 제작,127.078757718033,37.5611093824478,서울특별시 광진구 면목로 82-1
함루,서울특별시 광진구 능동로 90 (자양동) 1층,음식,일식,일식 회/초밥,127.070902015585,37.53835036397,서울특별시 광진구 능동로 90
딥247,서울특별시 광진구 자양로18길 53 (구의동) 2층,음식,주점,일반 유흥 주점,127.086372335275,37.538173720897,서울특별시 광진구 자양로18길 53
몬스터테이블,서울특별시 광진구 답십리로 382 (중곡동) 1층,음식,주점,요리 주점,127.082854653649,37.5713051089265,서울특별시 광진구 답십리로 382
건국카서비스,서울특별시 광진구 자양로 177-1 (구의동) 1층,수리·개인,자동차 수리·세차,자동차 정비소,127.084371592021,37.5435555297572,서울특별시 광진구 자양로 177-1
강릉집,서울특별시 광진구 영화사로 5-3 (중곡동) 1층,음식,한식,백반/한정식,127.088477463394,37.5585807902152,서울특별시 광진구 영화사로 5-3
씨에스골프,서울특별시 광진구 워커힐로 177 (광장동) 1층,소매,섬유·의복·신발 소매,기타 의류 소매업,127.111691182345,37.5586225695691,서울특별시 광진구 워커힐로 177
불향쭈꾸미&낙지,서울특별시 광진구 광나루로 361 (군자동),음식,한식,백반/한정식,127.069724520217,37.5484238574589,서울특별시 광진구 광나루로 361
클린굿즈,서울특별시 광진구 자양로4나길 44 (자양동) 2층,시설관리·임대,청소·방제,산업설비; 운송장비 및 공공장소 청소업,127.088586362051,37.5301173867358,서울특별시 광진구 자양로4나길 44
용용선생1호점;2호점,서울특별시 광진구 아차산로33길 25 (화양동) 3층,음식,주점,요리 주점,127.0702523358,37.5414628899231,서울특별시 광진구 아차산로33길 25
브라운휘트니스,서울특별시 광진구 광나루로 346 (화양동) 2층,예술·스포츠,스포츠 서비스,헬스장,127.068349149247,37.5479985303269,서울특별시 광진구 광나루로 346
아리라인,서울특별시 광진구 천호대로 572 (능동) 10층,소매,의약·화장품 소매,화장품 소매업,127.081219482209,37.5560466451658,서울특별시 광진구 천호대로 572
엉터리생고기두번째이야기,서울특별시 광진구 아차산로 218 (자양동) 2층,음식,한식,돼지고기 구이/찜,127.067375376681,37.5407734248786,서울특별시 광진구 아차산로 218
카레시대,서울특별시 광진구 아차산로41길 44 (자양동) 1층,음식,한식,백반/한정식,127.077393655757,37.5386265237989,서울특별시 광진구 아차산로41길 44
요하넥스,서울특별시 광진구 능동로 92 (자양동) 4층,소매,섬유·의복·신발 소매,여성 의류 소매업,127.07119956705,37.538992451652,서울특별시 광진구 능동로 92
비트믹스스튜디오학원,서울특별시 광진구 아차산로 235 (화양동) 10층,교육,기타 교육,레크리에이션 교육기관,127.069516198297,37.5406010925762,서울특별시 광진구 아차산로 235
디에이치글로벌그룹,서울특별시 광진구 자양번영로6길 52 (자양동) 1층,과학·기술,본사·경영 컨설팅,경영 컨설팅업,127.078203392785,37.531676717757,서울특별시 광진구 자양번영로6길 52
프리네트워크,서울특별시 광진구 광나루로56길 85 (구의동) 8층,소매,가전·통신 소매,컴퓨터/소프트웨어 소매업,127.095680669092,37.53571340911,서울특별시 광진구 광나루로56길 85
핑크노래연습장,서울특별시 광진구 구의강변로 85-1 (구의동) 지층,예술·스포츠,유원지·오락,노래방,127.093589027909,37.5383825135296,서울특별시 광진구 구의강변로 85-1
클린케어시스템,서울특별시 광진구 천호대로 557 (중곡동),시설관리·임대,청소·방제,소독; 구충 및 방제 서비스업,127.08027676022,37.5572377018823,서울특별시 광진구 천호대로 557
소풍,서울특별시 광진구 자양로45길 13 (구의동) 1층,음식,한식,백반/한정식,127.091207912481,37.5518349465318,서울특별시 광진구 자양로45길 13
정담은코다리동태탕,서울특별시 광진구 천호대로143길 12 (광장동) 1층,음식,한식,백반/한정식,127.103069374268,37.5461048462365,서울특별시 광진구 천호대로143길 12
작은성,서울특별시 광진구 면목로 113-1 (중곡동) 1층,음식,주점,요리 주점,127.079957340538,37.5638849575984,서울특별시 광진구 면목로 113-1
이엑스플랜,서울특별시 광진구 자양로49길 16-7 (구의동) 1층,과학·기술,전문 디자인,인테리어 디자인업,127.092075290262,37.5531030913036,서울특별시 광진구 자양로49길 16-7
한양공인중개사사무소,서울특별시 광진구 뚝섬로38길 18 (자양동) 1층,부동산,부동산 서비스,부동산 중개/대리업,127.072944591321,37.5333115117983,서울특별시 광진구 뚝섬로38길 18
동포활동실,서울특별시 광진구 뚝섬로23가길 5-4 (자양동) 지층,예술·스포츠,유원지·오락,기타 오락장,127.065130314185,37.537511886542,서울특별시 광진구 뚝섬로23가길 5-4
악쓰는하마코인노래연습장,서울특별시 광진구 능동로 107 (화양동),예술·스포츠,유원지·오락,노래방,127.070714543377,37.5406916237944,서울특별시 광진구 능동로 107
이손음악교습소,서울특별시 광진구 군자로 82 (군자동) 2층,교육,기타 교육,음악학원,127.071160111757,37.5503814280901,서울특별시 광진구 군자로 82
앵콜노래방,서울특별시 광진구 아차산로40길 9-1 (자양동),예술·스포츠,유원지·오락,노래방,127.078589639929,37.5370680301447,서울특별시 광진구 아차산로40길 9-1
두두살롱,서울특별시 광진구 동일로 178 (화양동),수리·개인,이용·미용,미용실,127.067797033897,37.5478049521618,서울특별시 광진구 동일로 178
클린마미,서울특별시 광진구 동일로 286 (군자동) 2층,시설관리·임대,청소·방제,건축물 일반 청소업,127.072495575187,37.556771359456,서울특별시 광진구 동일로 286
이디야커피건대스타시티,서울특별시 광진구 능동로 92 (자양동) 2층,음식,비알코올 ,카페,127.07119956705,37.538992451652,서울특별시 광진구 능동로 92
대공원공인중개사사무소,서울특별시 광진구 천호대로 562 (능동) 1층,부동산,부동산 서비스,부동산 중개/대리업,127.080342647343,37.5564813331518,서울특별시 광진구 천호대로 562
천하열쇠,서울특별시 광진구 동일로24길 30 (화양동) 1층,소매,철물·건설자재 소매,철물/공구 소매업,127.066752537906,37.543534731484,서울특별시 광진구 동일로24길 30
곽홍백외식연구소식당,서울특별시 광진구 면목로 92 (중곡동),음식,한식,백반/한정식,127.079211988761,37.5619058494946,서울특별시 광진구 면목로 92
쌈지,서울특별시 광진구 자양로15길 18 (자양동) 1층,소매,섬유·의복·신발 소매,신발 소매업,127.082531430662,37.5358102146815,서울특별시 광진구 자양로15길 18
피티니스,서울특별시 광진구 동일로24길 86 (화양동),예술·스포츠,스포츠 서비스,헬스장,127.069582419976,37.542556896186,서울특별시 광진구 동일로24길 86
문경엠케이포스,서울특별시 광진구 아차산로78길 75 (광장동),소매,안경·정밀기기 소매,사무기기 소매업,127.110971130975,37.5515889428079,서울특별시 광진구 아차산로78길 75
김앤홍,서울특별시 광진구 능동로 339 (중곡동) 4층,교육,기타 교육,기타 기술/직업 훈련학원,127.080730636012,37.5599083437733,서울특별시 광진구 능동로 339
세종김밥떡볶이,서울특별시 광진구 광나루로 375-1 (군자동),음식,기타 간이,김밥/만두/분식,127.07173099596,37.5481513122899,서울특별시 광진구 광나루로 375-1
이슈,서울특별시 광진구 능동로48길 21 (중곡동) 1층,소매,섬유·의복·신발 소매,여성 의류 소매업,127.083754059171,37.5625719209045,서울특별시 광진구 능동로48길 21
안녕가비,서울특별시 광진구 능동로53길 41 (중곡동) 1층,음식,비알코올 ,카페,127.082194604106,37.5669749476765,서울특별시 광진구 능동로53길 41
행정사사무소너른,서울특별시 광진구 능동로 327-1 (중곡동) 3층,과학·기술,법무관련 ,행정사,127.080232198316,37.5590214332579,서울특별시 광진구 능동로 327-1
캘리스코타코벨건대스타시티점,서울특별시 광진구 아차산로 262 (자양동) B1층,음식,서양식,기타 서양식 음식점,127.072944230258,37.5369968145663,서울특별시 광진구 아차산로 262
다브앙,서울특별시 광진구 용마산로28길 9 (중곡동) 1층,소매,섬유·의복·신발 소매,기타 의류 소매업,127.086721621431,37.5679741771404,서울특별시 광진구 용마산로28길 9
아이핸,서울특별시 광진구 동일로64길 9 (중곡동),과학·기술,전문 디자인,패션/섬유/기타 전문 디자인업,127.075274744313,37.5608478809281,서울특별시 광진구 동일로64길 9
시원테크,서울특별시 광진구 동일로10가길 19 (자양동) 1층,시설관리·임대,산업용품 대여,기타 산업용 기계/장비 대여업,127.063948626094,37.5388090505238,서울특별시 광진구 동일로10가길 19
에스알엔디팩토리,서울특별시 광진구 뚝섬로 702-9 (자양동),과학·기술,본사·경영 컨설팅,경영 컨설팅업,127.087535473926,37.5327944134634,서울특별시 광진구 뚝섬로 702-9
데로사,서울특별시 광진구 광장로 59-1 (광장동) 1층,소매,오락용품 소매,자전거 소매업,127.103540730705,37.5473789103728,서울특별시 광진구 광장로 59-1
조이너스,서울특별시 광진구 자양로15길 42 (자양동),소매,섬유·의복·신발 소매,여성 의류 소매업,127.081346892217,37.5355216793866,서울특별시 광진구 자양로15길 42
훈이네,서울특별시 광진구 천호대로129길 56 (구의동) 1층,소매,식료품 소매,반찬/식료품 소매업,127.092281344876,37.5538435376034,서울특별시 광진구 천호대로129길 56
카페미뇽,서울특별시 광진구 아차산로29길 12 (화양동) 1층,음식,비알코올 ,카페,127.068419680583,37.5414214146299,서울특별시 광진구 아차산로29길 12
제우스,서울특별시 광진구 광나루로56길 85 (구의동) 4층,소매,기타 생활용품 소매,주방/가정용품 소매업,127.095680669092,37.53571340911,서울특별시 광진구 광나루로56길 85
자양동녹두빈대떡,서울특별시 광진구 뚝섬로 626 (자양동) 1층,음식,한식,전/부침개,127.079092935131,37.5320260581163,서울특별시 광진구 뚝섬로 626
메이플평생교육원,서울특별시 광진구 천호대로102길 4 (군자동),교육,기타 교육,그 외 기타 교육기관,127.074043565918,37.5588108709477,서울특별시 광진구 천호대로102길 4
뉴욕골프,서울특별시 광진구 동일로 350 (중곡동),소매,오락용품 소매,운동용품 소매업,127.075532565194,37.5619672007092,서울특별시 광진구 동일로 350
미샵,서울특별시 광진구 광장로 60 (광장동),수리·개인,이용·미용,미용실,127.103826105728,37.5471738344337,서울특별시 광진구 광장로 60
미오름헤어,서울특별시 광진구 능동로 413-1 (중곡동) 2층,수리·개인,이용·미용,미용실,127.0841076127,37.5660527136487,서울특별시 광진구 능동로 413-1
레모니아,서울특별시 광진구 광장로 75-1 (광장동) 1층,음식,기타 간이,빵/도넛,127.105561086052,37.5478267371015,서울특별시 광진구 광장로 75-1
이오스튜디오,서울특별시 광진구 능동로 333-1 (중곡동) 2층,소매,의약·화장품 소매,화장품 소매업,127.080475314058,37.5595008832372,서울특별시 광진구 능동로 333-1
제일팜,서울특별시 광진구 능동로13길 75 (화양동) 2층,음식,기타 간이,김밥/만두/분식,127.06887461439,37.5448760290406,서울특별시 광진구 능동로13길 75
나섬,서울특별시 광진구 광장로 1 (광장동) 1층,소매,종합 소매,슈퍼마켓,127.098187346951,37.545545051163,서울특별시 광진구 광장로 1
이룸디자인,서울특별시 광진구 아차산로78길 75 (광장동) 3층,과학·기술,전문 디자인,인테리어 디자인업,127.110971130975,37.5515889428079,서울특별시 광진구 아차산로78길 75
티라노,서울특별시 광진구 아차산로46길 31 (자양동),시설관리·임대,고용 알선,상용 인력 공급 및 인사관리 서비스업,127.080768887836,37.5355982763644,서울특별시 광진구 아차산로46길 31
대호렌탈,서울특별시 광진구 영화사로3길 78-14 (중곡동),시설관리·임대,가정용품 대여,기타 개인/가정용품 대여업,127.093364660924,37.557843516715,서울특별시 광진구 영화사로3길 78-14
을지,서울특별시 광진구 아차산로29길 71 (화양동),과학·기술,본사·경영 컨설팅,경영 컨설팅업,127.069497621768,37.54391681543,서울특별시 광진구 아차산로29길 71
바스타,서울특별시 광진구 아차산로33길 14 (화양동) 1층,음식,주점,요리 주점,127.07020247513,37.5409218663542,서울특별시 광진구 아차산로33길 14
행동건축사사무소,서울특별시 광진구 아차산로40길 13 (자양동) 1층,과학·기술,전문 디자인,인테리어 디자인업,127.078534399682,37.5369594727759,서울특별시 광진구 아차산로40길 13
리코스타코인노래연습장건대,서울특별시 광진구 광나루로24길 8 (화양동) 1층,예술·스포츠,유원지·오락,노래방,127.076138673662,37.545879190133,서울특별시 광진구 광나루로24길 8
오혜숙생활단식해피은찬지사,서울특별시 광진구 천호대로116길 25 (능동),소매,식료품 소매,건강보조식품 소매업,127.083712625413,37.5539395407057,서울특별시 광진구 천호대로116길 25
유컴테크,서울특별시 광진구 광나루로56길 85 (구의동) 7층,소매,가전·통신 소매,컴퓨터/소프트웨어 소매업,127.095680669092,37.53571340911,서울특별시 광진구 광나루로56길 85
산울림라이브,서울특별시 광진구 면목로 195 (중곡동) 1층,음식,한식,백반/한정식,127.083056912837,37.5705047473535,서울특별시 광진구 면목로 195
코카인,서울특별시 광진구 면목로1길 28 (군자동),음식,기타 간이,그 외 기타 간이 음식점,127.074045010346,37.555035484757,서울특별시 광진구 면목로1길 28
로즈필라테스,서울특별시 광진구 광나루로56길 32 (구의동) 1층,교육,기타 교육,요가/필라테스 학원,127.096198403964,37.5378168284815,서울특별시 광진구 광나루로56길 32
별난만두,서울특별시 광진구 아차산로29길 44 (화양동) 1층,음식,기타 간이,김밥/만두/분식,127.069094197676,37.5426882060198,서울특별시 광진구 아차산로29길 44
디케이기획,서울특별시 광진구 뚝섬로26길 37 (자양동) 2층,과학·기술,광고,광고 대행업,127.065648186736,37.5350020499683,서울특별시 광진구 뚝섬로26길 37
베베라인,서울특별시 광진구 구의로 20-1 (구의동) 1층,소매,섬유·의복·신발 소매,여성 의류 소매업,127.089622897178,37.5397846787721,서울특별시 광진구 구의로 20-1
저스트체대입시,서울특별시 광진구 자양로 142 (구의동) B1층,교육,일반 교육,입시·교과학원,127.083563321248,37.5402514077644,서울특별시 광진구 자양로 142
크라운앤서비스유한책임회사,서울특별시 광진구 아차산로 229 (화양동),과학·기술,본사·경영 컨설팅,경영 컨설팅업,127.06899348461,37.5407771828983,서울특별시 광진구 아차산로 229
으뜸공인중개사사무소,서울특별시 광진구 구의로 39-1 (구의동),부동산,부동산 서비스,부동산 중개/대리업,127.089781586962,37.5416240501599,서울특별시 광진구 구의로 39-1
파크타운공인중개사사무소,서울특별시 광진구 광나루로20길 13-8 (화양동) 1층,부동산,부동산 서비스,부동산 중개/대리업,127.074946098029,37.5462302738566,서울특별시 광진구 광나루로20길 13-8
한갑루짬뽕,서울특별시 광진구 동일로 112 (화양동) 2층,음식,중식,중국집,127.064467851702,37.5425345071294,서울특별시 광진구 동일로 112
제이엘컨설팅,서울특별시 광진구 능동로13길 75 (화양동) 2층,과학·기술,본사·경영 컨설팅,경영 컨설팅업,127.06887461439,37.5448760290406,서울특별시 광진구 능동로13길 75
속리산흑염소,서울특별시 광진구 용마산로4길 16 (중곡동) 1층,음식,한식,기타 한식 음식점,127.089048339608,37.5563145491495,서울특별시 광진구 용마산로4길 16
쥬라기노래방,서울특별시 광진구 능동로36길 22 (능동) 1층,예술·스포츠,유원지·오락,노래방,127.080247880909,37.5559039229331,서울특별시 광진구 능동로36길 22
빅베어8,서울특별시 광진구 능동로 209 (군자동) 2층,음식,서양식,경양식,127.073170747584,37.5516046351507,서울특별시 광진구 능동로 209
63도씨아트스튜디오,서울특별시 광진구 자양번영로11길 24-3 (자양동) 1층,수리·개인,이용·미용,네일숍,127.075417013539,37.5374216747671,서울특별시 광진구 자양번영로11길 24-3
은행나무집,서울특별시 광진구 아차산로69길 20 (광장동),음식,한식,백반/한정식,127.09853553389,37.5429436666009,서울특별시 광진구 아차산로69길 20
블루민헤어,서울특별시 광진구 뚝섬로 590 (자양동),수리·개인,이용·미용,미용실,127.075288943239,37.5331316603951,서울특별시 광진구 뚝섬로 590
서울환경,서울특별시 광진구 천호대로123길 52 (중곡동) 3층,시설관리·임대,청소·방제,건축물 일반 청소업,127.086794586285,37.5573603784421,서울특별시 광진구 천호대로123길 52
소유식당,서울특별시 광진구 긴고랑로13길 5 (중곡동) 1층,음식,한식,백반/한정식,127.081645594001,37.562825853643,서울특별시 광진구 긴고랑로13길 5
모아드,서울특별시 광진구 군자로 4 (화양동) 2층,소매,의약·화장품 소매,화장품 소매업,127.072031878211,37.5439637900502,서울특별시 광진구 군자로 4
할매순대국,서울특별시 광진구 광장로 77 (광장동) 1층,음식,한식,국/탕/찌개류,127.10567359859,37.5478816525004,서울특별시 광진구 광장로 77
워시엔조이건대,서울특별시 광진구 아차산로40길 41 (자양동) 1층,수리·개인,세탁,셀프 빨래방,127.07807373753,37.5357754980263,서울특별시 광진구 아차산로40길 41
스마일공인중개사사무소,서울특별시 광진구 아차산로61길 13 (구의동) 1층,부동산,부동산 서비스,부동산 중개/대리업,127.091347961164,37.5393654597744,서울특별시 광진구 아차산로61길 13
슈가교육,서울특별시 광진구 아차산로 612 (광장동) 4층,교육,교육 지원,기타 교육지원 서비스업,127.106676059806,37.547330587996,서울특별시 광진구 아차산로 612
창조수학제2관학원,서울특별시 광진구 광나루로 582 (구의동) 8층,교육,일반 교육,입시·교과학원,127.09336181983,37.5431293197634,서울특별시 광진구 광나루로 582
시니어벤처협회,서울특별시 광진구 자양로 135 (자양동),교육,기타 교육,직원 훈련기관,127.082934557648,37.5398500632625,서울특별시 광진구 자양로 135
광진우리동네자전거포,서울특별시 광진구 자양로19길 70 (자양동) 1층,소매,오락용품 소매,자전거 소매업,127.079704333222,37.5384373121074,서울특별시 광진구 자양로19길 70
피씨트리,서울특별시 광진구 광나루로56길 85 (구의동) 7층,소매,가전·통신 소매,컴퓨터/소프트웨어 소매업,127.095680669092,37.53571340911,서울특별시 광진구 광나루로56길 85
히읗히읗,서울특별시 광진구 군자로10길 14-15 (군자동) 1층,음식,비알코올 ,카페,127.071581208844,37.5483663867991,서울특별시 광진구 군자로10길 14-15
스즈키준,서울특별시 광진구 동일로 220 (군자동) 2층,수리·개인,모터사이클 수리,모터사이클 수리업,127.069428860795,37.5512688466151,서울특별시 광진구 동일로 220
프레쉬,서울특별시 광진구 아차산로51길 8 (구의동),예술·스포츠,유원지·오락,기타 오락장,127.085442270008,37.5374276579357,서울특별시 광진구 아차산로51길 8
휴대폰대통령,서울특별시 광진구 능동로 283-4 (군자동),소매,가전·통신 소매,핸드폰 소매업,127.077979274086,37.5553906513509,서울특별시 광진구 능동로 283-4
플랜커뮤니케이션광진지점,서울특별시 광진구 자양번영로5길 8 (자양동) 2층,교육,기타 교육,기타 기술/직업 훈련학원,127.074968974425,37.532471385672,서울특별시 광진구 자양번영로5길 8
귀소,서울특별시 광진구 뚝섬로23길 3 (자양동) 1층,음식,한식,백반/한정식,127.063577298897,37.5368328033121,서울특별시 광진구 뚝섬로23길 3
파인힐여관,서울특별시 광진구 용마산로 192 (중곡동),숙박,일반 숙박,여관/모텔,127.086438934477,37.5707291982884,서울특별시 광진구 용마산로 192
제일치과의원,서울특별시 광진구 면목로 130 (중곡동) 3층,보건의료,의원,치과의원,127.080883577885,37.564964420234,서울특별시 광진구 면목로 130
신헬스케어,서울특별시 광진구 아차산로 345 (자양동) 2층,예술·스포츠,스포츠 서비스,헬스장,127.081435607686,37.5375136967709,서울특별시 광진구 아차산로 345
작은사치헤어살롱,서울특별시 광진구 능동로 161 (화양동) 3층,수리·개인,이용·미용,미용실,127.072774482522,37.54522208489,서울특별시 광진구 능동로 161
은주헤어,서울특별시 광진구 면목로 120 (중곡동) 1층,수리·개인,이용·미용,미용실,127.080497623679,37.5641324499698,서울특별시 광진구 면목로 120
드가헤어,서울특별시 광진구 뚝섬로 585 (자양동) 1층,수리·개인,이용·미용,미용실,127.075034482102,37.5335801941742,서울특별시 광진구 뚝섬로 585
하루,서울특별시 광진구 구의로 9 (구의동) 1층,음식,한식,백반/한정식,127.089101305498,37.5389426770487,서울특별시 광진구 구의로 9
동선인테리어,서울특별시 광진구 뚝섬로54길 50 (자양동) 1층,과학·기술,전문 디자인,인테리어 디자인업,127.079859074377,37.5295271003528,서울특별시 광진구 뚝섬로54길 50
JHSTUDIOS,서울특별시 광진구 아차산로46가길 19 (자양동),과학·기술,광고,광고 대행업,127.082037862573,37.5363830530734,서울특별시 광진구 아차산로46가길 19
카페리브93,서울특별시 광진구 구의강변로 93 (구의동) 1층,음식,비알코올 ,카페,127.0937302264,37.5388701661603,서울특별시 광진구 구의강변로 93
술마시는뮤직노래방,서울특별시 광진구 구의로 72 (구의동),음식,주점,일반 유흥 주점,127.090709537824,37.5444154521544,서울특별시 광진구 구의로 72
황제바베큐,서울특별시 광진구 뚝섬로56길 25 (자양동) 1층,음식,한식,돼지고기 구이/찜,127.082769333244,37.5302435509983,서울특별시 광진구 뚝섬로56길 25
나라인력,서울특별시 광진구 자양로13길 107 (자양동) 2층,시설관리·임대,고용 알선,고용 알선업,127.0798600306,37.5322122481651,서울특별시 광진구 자양로13길 107
아트앤하트구의미술교습소,서울특별시 광진구 광나루로39길 11 (구의동) 2층,교육,기타 교육,미술학원,127.088761356386,37.5454907073754,서울특별시 광진구 광나루로39길 11
지구상사,서울특별시 광진구 아차산로33길 27 (화양동) 3층,음식,주점,생맥주 전문,127.070239790328,37.541561906819,서울특별시 광진구 아차산로33길 27
더마실카페,서울특별시 광진구 긴고랑로 41 (중곡동) 1층,음식,비알코올 ,카페,127.080896390237,37.5630002333348,서울특별시 광진구 긴고랑로 41
서울광진경찰서복지회,서울특별시 광진구 자양로 167 (구의동),소매,종합 소매,슈퍼마켓,127.083881664322,37.5429029721792,서울특별시 광진구 자양로 167
살롱드윤,서울특별시 광진구 용마산로3길 13 (중곡동) 1층,수리·개인,이용·미용,미용실,127.087205855612,37.5561201091462,서울특별시 광진구 용마산로3길 13
머더파커,서울특별시 광진구 아차산로 213 (화양동),예술·스포츠,유원지·오락,기타 오락장,127.067186933902,37.5413666303843,서울특별시 광진구 아차산로 213
참진댄스스포츠,서울특별시 광진구 동일로60길 40 (군자동) 3층,교육,기타 교육,레크리에이션 교육기관,127.075448186251,37.5578036927724,서울특별시 광진구 동일로60길 40
이찌방이야기,서울특별시 광진구 동일로22길 57 (화양동) 1층,음식,주점,요리 주점,127.067441898688,37.5417921383603,서울특별시 광진구 동일로22길 57
괴르츠,서울특별시 광진구 아차산로78길 110 (광장동),음식,주점,요리 주점,127.110164098632,37.5499789896385,서울특별시 광진구 아차산로78길 110
몽움,서울특별시 광진구 아차산로25길 24 (화양동) 1층,음식,주점,요리 주점,127.067038358407,37.5423926551153,서울특별시 광진구 아차산로25길 24
세븐일레븐군자역점,서울특별시 광진구 천호대로 533 (중곡동) 1층,소매,종합 소매,편의점,127.077820924301,37.5581376165622,서울특별시 광진구 천호대로 533
렌느,서울특별시 광진구 천호대로 550 (능동) 1층,소매,섬유·의복·신발 소매,여성 의류 소매업,127.078996366347,37.5573538679184,서울특별시 광진구 천호대로 550
월곡단청공방,서울특별시 광진구 아차산로 317 (자양동) 6층,소매,장식품 소매,예술품 소매업,127.078271737719,37.5380747282722,서울특별시 광진구 아차산로 317
Y기획,서울특별시 광진구 자양로 73 (자양동) 5층,과학·기술,광고,광고 대행업,127.084099623895,37.5343356495957,서울특별시 광진구 자양로 73
새열린공인중개사사무소,서울특별시 광진구 자양로18길 65 (구의동) 1층,부동산,부동산 서비스,부동산 중개/대리업,127.087116773946,37.5383686992859,서울특별시 광진구 자양로18길 65
조이뮤지엄,서울특별시 광진구 아차산로78길 72 (광장동),교육,교육 지원,기타 교육지원 서비스업,127.110408308239,37.5513324090047,서울특별시 광진구 아차산로78길 72
허씨정통중경마라쌍궈,서울특별시 광진구 아차산로30길 17 (자양동) 1층,음식,중식,마라탕/훠궈,127.067578496853,37.5399100194047,서울특별시 광진구 아차산로30길 17
플러스공인중개사사무소,서울특별시 광진구 면목로 71 (중곡동),부동산,부동산 서비스,부동산 중개/대리업,127.077998657688,37.5602474603491,서울특별시 광진구 면목로 71
대원철물,서울특별시 광진구 능동로48길 36 (중곡동) 1층,소매,철물·건설자재 소매,철물/공구 소매업,127.084472495734,37.5621359800896,서울특별시 광진구 능동로48길 36
굽네치킨중곡4동,서울특별시 광진구 영화사로 47 (중곡동) 1층,음식,기타 간이,치킨,127.091937802272,37.5560394604232,서울특별시 광진구 영화사로 47
주하객잔,서울특별시 광진구 아차산로78길 170 (광장동) 1층,음식,중식,중국집,127.108321079096,37.5479377169447,서울특별시 광진구 아차산로78길 170
비밀의화원,서울특별시 광진구 아차산로 235 (화양동) 3층,예술·스포츠,유원지·오락,기타 오락장,127.069516198297,37.5406010925762,서울특별시 광진구 아차산로 235
선경등산복,서울특별시 광진구 뚝섬로30길 23 (자양동) 1층,소매,식료품 소매,반찬/식료품 소매업,127.06664222713,37.5351360580443,서울특별시 광진구 뚝섬로30길 23
뉴엘리트부동산공인중개사사무소,서울특별시 광진구 아차산로 321-1 (자양동) 1층,부동산,부동산 서비스,부동산 중개/대리업,127.07868060378,37.5379517715526,서울특별시 광진구 아차산로 321-1
그린레벨,서울특별시 광진구 천호대로136길 61 (구의동),과학·기술,전문 디자인,인테리어 디자인업,127.089602154703,37.5470740341322,서울특별시 광진구 천호대로136길 61
블루픽,서울특별시 광진구 자양로18길 91 (구의동),시설관리·임대,기타 사업 서비스,전시/컨벤션/행사 대행 서비스업,127.088537557342,37.5387761375262,서울특별시 광진구 자양로18길 91
소문난왕족발,서울특별시 광진구 자양로53길 118 (중곡동) 1층,음식,한식,족발/보쌈,127.088944969121,37.5573679806603,서울특별시 광진구 자양로53길 118
서양반주식당,서울특별시 광진구 뚝섬로52가길 16 (자양동) 1층,음식,서양식,경양식,127.080270271786,37.5310530845507,서울특별시 광진구 뚝섬로52가길 16
디어네일,서울특별시 광진구 뚝섬로 635 (자양동) 1층,수리·개인,이용·미용,네일숍,127.080270632162,37.5319451305653,서울특별시 광진구 뚝섬로 635
와이즈앤와이즈,서울특별시 광진구 강변역로4길 68 (구의동),과학·기술,시장 조사,시장 조사 및 여론 조사업,127.0925842524,37.532590030538,서울특별시 광진구 강변역로4길 68
미식가의1인찜닭1인닭도리,서울특별시 광진구 동일로 226 (군자동) 1층,음식,한식,닭/오리고기 구이/찜,127.069726784519,37.5518839082784,서울특별시 광진구 동일로 226
뮤직메이트,서울특별시 광진구 천호대로 506 (군자동) 2층,소매,오락용품 소매,음반/비디오물 소매업,127.074576820991,37.5587069259884,서울특별시 광진구 천호대로 506
딜란스쿠키,서울특별시 광진구 자양로28길 6 (구의동) 1층,음식,기타 간이,빵/도넛,127.08456783684,37.5423135991075,서울특별시 광진구 자양로28길 6
대한컬렉션인테리어,서울특별시 광진구 아차산로27길 30-5 (화양동),과학·기술,전문 디자인,인테리어 디자인업,127.068492711943,37.5428276309033,서울특별시 광진구 아차산로27길 30-5
원피스솔루션,서울특별시 광진구 아차산로78길 110 (광장동),과학·기술,광고,광고 대행업,127.110164098632,37.5499789896385,서울특별시 광진구 아차산로78길 110
또바기정육점,서울특별시 광진구 능동로49길 42 (중곡동) 1층,소매,식료품 소매,정육점,127.081109170295,37.5650292497141,서울특별시 광진구 능동로49길 42
가마로강정구의,서울특별시 광진구 광나루로 533 (구의동) 1층,음식,기타 간이,치킨,127.088845828052,37.5450588541434,서울특별시 광진구 광나루로 533
은경이네반찬,서울특별시 광진구 자양로13나길 28 (자양동) 1층,소매,식료품 소매,반찬/식료품 소매업,127.079800408571,37.5343022276105,서울특별시 광진구 자양로13나길 28
브랜드성공연구소,서울특별시 광진구 뚝섬로67길 5 (구의동),과학·기술,광고,광고 대행업,127.090828679161,37.5346038998139,서울특별시 광진구 뚝섬로67길 5
리시오,서울특별시 광진구 동일로72길 30 (중곡동) 1층,수리·개인,이용·미용,미용실,127.079200920945,37.5655640214887,서울특별시 광진구 동일로72길 30
브레드하이픈,서울특별시 광진구 동일로38길 22 (군자동) 1층,음식,기타 간이,빵/도넛,127.070585020108,37.5511247744053,서울특별시 광진구 동일로38길 22
서울척앤본신경외과의원,서울특별시 광진구 능동로 314 (중곡동) 4층,보건의료,의원,외과 의원,127.080023129923,37.5576141668195,서울특별시 광진구 능동로 314
와이퍼,서울특별시 광진구 아차산로 450 (구의동) 1층,수리·개인,자동차 수리·세차,자동차 세차장,127.092320179999,37.5385079254586,서울특별시 광진구 아차산로 450
진경이엔씨,서울특별시 광진구 자양로 126 (구의동) 10층,과학·기술,기술 서비스,건물 및 토목 엔지니어링 서비스업,127.083601939359,37.5389451809746,서울특별시 광진구 자양로 126
바라보다,서울특별시 광진구 면목로 183 (중곡동) 1층,음식,주점,요리 주점,127.0828890626,37.5694221857271,서울특별시 광진구 면목로 183
페루곤,서울특별시 광진구 능동로 143 (화양동) 1층,소매,섬유·의복·신발 소매,액세서리/잡화 소매업,127.07204788368,37.5435854742578,서울특별시 광진구 능동로 143
중일가든,서울특별시 광진구 아차산로76가길 4 (광장동) 1층,음식,한식,돼지고기 구이/찜,127.107477330967,37.5475168578898,서울특별시 광진구 아차산로76가길 4
복싱멘토스쿨,서울특별시 광진구 아차산로 443 (구의동) 2층,교육,기타 교육,태권도/무술학원,127.091636289039,37.538917151358,서울특별시 광진구 아차산로 443
화양대박치킨,서울특별시 광진구 아차산로29길 75 (화양동) 1층,음식,기타 간이,치킨,127.069585903428,37.5440977213014,서울특별시 광진구 아차산로29길 75
쿤시,서울특별시 광진구 용마산로1길 111 (중곡동) 1층,음식,일식,일식 회/초밥,127.082649011018,37.5566884958167,서울특별시 광진구 용마산로1길 111
커피온리,서울특별시 광진구 광나루로24길 29 (화양동),음식,비알코올 ,카페,127.076769023813,37.5452353633101,서울특별시 광진구 광나루로24길 29
아이브,서울특별시 광진구 천호대로110길 7 (능동) 4층,과학·기술,광고,광고 대행업,127.080561767556,37.5561496511963,서울특별시 광진구 천호대로110길 7
머신인더스트리,서울특별시 광진구 동일로80길 34 (중곡동),수리·개인,가전제품 수리,가전제품 수리업,127.081648318945,37.5699802007725,서울특별시 광진구 동일로80길 34
삼도리치킨,서울특별시 광진구 뚝섬로27길 55 (자양동),음식,기타 간이,치킨,127.066500981955,37.538297634307,서울특별시 광진구 뚝섬로27길 55
오고,서울특별시 광진구 광장로 71-1 (광장동) 1층,음식,비알코올 ,카페,127.105098321506,37.5477241149585,서울특별시 광진구 광장로 71-1
본래순대,서울특별시 광진구 자양로 53 (자양동) 1층,음식,한식,국/탕/찌개류,127.084913382441,37.5325578716745,서울특별시 광진구 자양로 53
레드포인트클라이밍,서울특별시 광진구 천호대로109길 9 (중곡동) 1층,교육,기타 교육,요가/필라테스 학원,127.080772945481,37.5573857340016,서울특별시 광진구 천호대로109길 9
미주류,서울특별시 광진구 동일로32길 18 (군자동) 1층,음식,주점,요리 주점,127.069115145981,37.5491939582668,서울특별시 광진구 동일로32길 18
카지노슬롯게임물라PC,서울특별시 광진구 자양로13길 87 (자양동) 1층,예술·스포츠,유원지·오락,PC방,127.080495824261,37.5329560642043,서울특별시 광진구 자양로13길 87
일촌공인중개사사무소,서울특별시 광진구 긴고랑로 38 (중곡동) 1층,부동산,부동산 서비스,부동산 중개/대리업,127.080230729525,37.5628238500079,서울특별시 광진구 긴고랑로 38
릴리리야,서울특별시 광진구 자양로45길 93 (중곡동),과학·기술,전문 디자인,시각 디자인업,127.089696233877,37.5551571907039,서울특별시 광진구 자양로45길 93
최고집풍천장어,서울특별시 광진구 아차산로51길 79 (구의동) 1층,음식,한식,해산물 구이/찜,127.08499587504,37.5406229378276,서울특별시 광진구 아차산로51길 79
얼음왕국아이스크림할인점중곡1,서울특별시 광진구 자양로50길 20 (구의동) 1층,소매,종합 소매,슈퍼마켓,127.093469665824,37.5519784803549,서울특별시 광진구 자양로50길 20
워시팡팡셀프빨래방,서울특별시 광진구 아차산로42길 58 (자양동) 1층,수리·개인,세탁,셀프 빨래방,127.078536383137,37.5349591506745,서울특별시 광진구 아차산로42길 58
가현스시,서울특별시 광진구 광나루로36길 21 (구의동) 1층,음식,일식,일식 회/초밥,127.086698332777,37.5439159485503,서울특별시 광진구 광나루로36길 21
조은친구공인중개사사무소,서울특별시 광진구 자양로38길 24 (구의동) 1층,부동산,부동산 서비스,부동산 중개/대리업,127.088960341141,37.5468077788812,서울특별시 광진구 자양로38길 24
전주식당,서울특별시 광진구 광장로 75-1 (광장동) 1층,음식,한식,백반/한정식,127.105561086052,37.5478267371015,서울특별시 광진구 광장로 75-1
우리집,서울특별시 광진구 구의강변로 86 (구의동),음식,주점,요리 주점,127.094022353452,37.5381065121792,서울특별시 광진구 구의강변로 86
군자조은약국,서울특별시 광진구 천호대로 549 (중곡동) 1층,소매,의약·화장품 소매,약국,127.079207291007,37.5576889014947,서울특별시 광진구 천호대로 549
살롱실버본,서울특별시 광진구 광나루로 545 (구의동) 1층,수리·개인,이용·미용,미용실,127.089848656981,37.5463460822299,서울특별시 광진구 광나루로 545
미니스톱구의명성점,서울특별시 광진구 아차산로51길 62 (구의동) 1층,소매,종합 소매,편의점,127.085006775035,37.5397309800589,서울특별시 광진구 아차산로51길 62
미니스톱중곡,서울특별시 광진구 용마산로3길 32 (중곡동) 1층,소매,종합 소매,편의점,127.086197649406,37.5561934049307,서울특별시 광진구 용마산로3길 32
월드노래연습장,서울특별시 광진구 뚝섬로 596 (자양동) 지층,예술·스포츠,유원지·오락,노래방,127.075924835116,37.5329474167311,서울특별시 광진구 뚝섬로 596
파고다골프,서울특별시 광진구 자양로37길 44-7 (구의동),소매,오락용품 소매,운동용품 소매업,127.086372988649,37.5492476589082,서울특별시 광진구 자양로37길 44-7
문가네본가면옥,서울특별시 광진구 아차산로51길 92 (구의동) 1층,음식,한식,냉면/밀면,127.085466249839,37.5410230448321,서울특별시 광진구 아차산로51길 92
써클circle6호,서울특별시 광진구 강변역로 50 (구의동) 1층,소매,종합 소매,슈퍼마켓,127.094167449723,37.5345304411669,서울특별시 광진구 강변역로 50
헬스스낵,서울특별시 광진구 워커힐로 177 (광장동) 2층,음식,기타 간이,김밥/만두/분식,127.111691182345,37.5586225695691,서울특별시 광진구 워커힐로 177
에스비에스노래연습장,서울특별시 광진구 뚝섬로23길 43 (자양동) 지층,예술·스포츠,유원지·오락,노래방,127.065777356646,37.5373458073232,서울특별시 광진구 뚝섬로23길 43
365노래연습장,서울특별시 광진구 아차산로51길 23 (구의동) 1층,예술·스포츠,유원지·오락,노래방,127.084857758257,37.5380358457857,서울특별시 광진구 아차산로51길 23
크록스롯데,서울특별시 광진구 능동로 92 (자양동) 7층,소매,섬유·의복·신발 소매,신발 소매업,127.07119956705,37.538992451652,서울특별시 광진구 능동로 92
미나살롱,서울특별시 광진구 용마산로1길 14 (중곡동),수리·개인,이용·미용,미용실,127.087707755544,37.5548715278881,서울특별시 광진구 용마산로1길 14
에어컨청소.착한마음홈케어,서울특별시 광진구 용마산로29길 12 (중곡동),시설관리·임대,청소·방제,산업설비; 운송장비 및 공공장소 청소업,127.085593483652,37.5676590879904,서울특별시 광진구 용마산로29길 12
부뚜막,서울특별시 광진구 능동로37길 17 (중곡동) 1층,음식,주점,요리 주점,127.078919036462,37.5581191569377,서울특별시 광진구 능동로37길 17
하나프랜차이즈&소상공인중개사사무소,서울특별시 광진구 동일로24길 54 (화양동) 1층,부동산,부동산 서비스,부동산 중개/대리업,127.067923149978,37.5431294939139,서울특별시 광진구 동일로24길 54
비비앤줄리,서울특별시 광진구 광나루로56길 29 (구의동) 1층,음식,기타 간이,김밥/만두/분식,127.096514325742,37.5369542342159,서울특별시 광진구 광나루로56길 29
업,서울특별시 광진구 아차산로 324 (자양동) 1층,과학·기술,광고,광고 대행업,127.078754696567,37.5374477600742,서울특별시 광진구 아차산로 324
김동제세무회계,서울특별시 광진구 광나루로 358 (화양동) 3층,과학·기술,회계·세무,세무사,127.069642056348,37.5477744513342,서울특별시 광진구 광나루로 358
모츠,서울특별시 광진구 군자로3길 14 (화양동),음식,비알코올 ,카페,127.070427716629,37.5446539924935,서울특별시 광진구 군자로3길 14
킹프레소,서울특별시 광진구 능동로19길 35 (화양동) 1층,음식,비알코올 ,카페,127.071835039837,37.5470618587479,서울특별시 광진구 능동로19길 35
마돈나,서울특별시 광진구 자양로 49 (자양동),예술·스포츠,유원지·오락,노래방,127.08516690086,37.5321813932,서울특별시 광진구 자양로 49
예산국수,서울특별시 광진구 아차산로 262 (자양동),음식,한식,국수/칼국수,127.072944230258,37.5369968145663,서울특별시 광진구 아차산로 262
모던요가&필라테스,서울특별시 광진구 능동로 275 (군자동) 4층,교육,기타 교육,요가/필라테스 학원,127.077706789302,37.5545415361136,서울특별시 광진구 능동로 275
치킨뱅이,서울특별시 광진구 천호대로111길 10 (중곡동) 1층,음식,기타 간이,치킨,127.082240048186,37.5568114646233,서울특별시 광진구 천호대로111길 10
대한해물,서울특별시 광진구 아차산로51길 32 (구의동) 1층,음식,한식,백반/한정식,127.085159831961,37.5383175128034,서울특별시 광진구 아차산로51길 32
아차산약국,서울특별시 광진구 자양로 281 (구의동) 1층,소매,의약·화장품 소매,약국,127.091466060238,37.5510800499147,서울특별시 광진구 자양로 281
엔츄리,서울특별시 광진구 광나루로56길 85 (구의동) 1층,소매,섬유·의복·신발 소매,기타 의류 소매업,127.095680669092,37.53571340911,서울특별시 광진구 광나루로56길 85
에이투필라테스,서울특별시 광진구 뚝섬로 596 (자양동) 3층,교육,기타 교육,요가/필라테스 학원,127.075924835116,37.5329474167311,서울특별시 광진구 뚝섬로 596
비티아이컴퍼니,서울특별시 광진구 천호대로 579 (중곡동),과학·기술,광고,광고 대행업,127.08256245071,37.5563634451891,서울특별시 광진구 천호대로 579
제일공인중개사사무소,서울특별시 광진구 긴고랑로9길 34 (중곡동) 1층,부동산,부동산 서비스,부동산 중개/대리업,127.08159751915,37.5648978923414,서울특별시 광진구 긴고랑로9길 34
에이치제이커뮤니케이션즈,서울특별시 광진구 동일로46길 23-11 (군자동),과학·기술,광고,광고 대행업,127.071298687492,37.5538065083789,서울특별시 광진구 동일로46길 23-11
프런투라인롯데건대스타시티점,서울특별시 광진구 능동로 92 (자양동) 5층,소매,섬유·의복·신발 소매,신발 소매업,127.07119956705,37.538992451652,서울특별시 광진구 능동로 92
김돈이,서울특별시 광진구 아차산로 397 (구의동),음식,한식,돼지고기 구이/찜,127.086707703141,37.5375816199732,서울특별시 광진구 아차산로 397
더조은사진관,서울특별시 광진구 자양로 120 (구의동) 1층,과학·기술,사진 촬영,사진촬영업,127.083561312936,37.5385664234867,서울특별시 광진구 자양로 120
건대온누리약국,서울특별시 광진구 능동로 110 (화양동) 2층,소매,의약·화장품 소매,약국,127.071393981254,37.5406519161493,서울특별시 광진구 능동로 110
피에스엠트렌드,서울특별시 광진구 광장로1길 22-5 (광장동) 3층,과학·기술,전문 디자인,시각 디자인업,127.102381337014,37.5478026078626,서울특별시 광진구 광장로1길 22-5
광진구의공인중개사사무소,서울특별시 광진구 아차산로55길 43-1 (구의동) 1층,부동산,부동산 서비스,부동산 중개/대리업,127.086301361784,37.5393535512667,서울특별시 광진구 아차산로55길 43-1
옹녀,서울특별시 광진구 자양번영로6길 67 (자양동) 1층,음식,한식,돼지고기 구이/찜,127.079200293745,37.5315763684357,서울특별시 광진구 자양번영로6길 67
호정개발오페뜨,서울특별시 광진구 능동로 111 (화양동) 2층,음식,비알코올 ,카페,127.070835091269,37.5410079404983,서울특별시 광진구 능동로 111
미아리우동집,서울특별시 광진구 천호대로 677 (구의동),음식,기타 간이,김밥/만두/분식,127.09069983654,37.5508038362174,서울특별시 광진구 천호대로 677
알바트로스,서울특별시 광진구 아차산로78길 167 (광장동) 4층,시설관리·임대,여행사·보조,기타 여행 보조/예약 서비스업,127.108696004583,37.5478144001889,서울특별시 광진구 아차산로78길 167
스카이인리크루트서비스,서울특별시 광진구 광나루로56길 85 (구의동) 22층,과학·기술,본사·경영 컨설팅,경영 컨설팅업,127.095680669092,37.53571340911,서울특별시 광진구 광나루로56길 85
북촌손만두,서울특별시 광진구 자양로 113 (자양동),음식,기타 간이,김밥/만두/분식,127.082958502078,37.5378949645998,서울특별시 광진구 자양로 113
다인컴패니,서울특별시 광진구 구의로 32-1 (구의동) 1층,음식,일식,일식 회/초밥,127.089839222509,37.5406063045991,서울특별시 광진구 구의로 32-1
고려세탁,서울특별시 광진구 능동로3길 48 (자양동),수리·개인,세탁,세탁소,127.064969632881,37.5340685953941,서울특별시 광진구 능동로3길 48
헬시파트너스,서울특별시 광진구 아차산로30길 25 (자양동) 2층,소매,종합 소매,슈퍼마켓,127.067390750914,37.5395391056139,서울특별시 광진구 아차산로30길 25
군자생고기,서울특별시 광진구 천호대로107길 8 (중곡동) 1층,음식,한식,돼지고기 구이/찜,127.07862389884,37.5581889380688,서울특별시 광진구 천호대로107길 8
입시·교과학원,서울특별시 광진구 광나루로17길 14-4 (군자동),교육,일반 교육,입시·교과학원,127.073041730291,37.54831478801,서울특별시 광진구 광나루로17길 14-4
컴포즈커피광진,서울특별시 광진구 자양로 312 (구의동) 1층,음식,비알코올 ,카페,127.093388233927,37.5530951589161,서울특별시 광진구 자양로 312
밸류인수학학원,서울특별시 광진구 아차산로 491 (광장동) 3층,교육,일반 교육,입시·교과학원,127.09598061069,37.5417978179664,서울특별시 광진구 아차산로 491
이브,서울특별시 광진구 자양로18길 19 (구의동),예술·스포츠,유원지·오락,노래방,127.08465718469,37.5377819963877,서울특별시 광진구 자양로18길 19
현정메이크업,서울특별시 광진구 능동로13길 39 (화양동) 3층,수리·개인,이용·미용,피부 관리실,127.069746106942,37.5439548153122,서울특별시 광진구 능동로13길 39
맵시라인,서울특별시 광진구 동일로26길 40 (화양동) 1층,소매,섬유·의복·신발 소매,액세서리/잡화 소매업,127.068015326397,37.5448151869596,서울특별시 광진구 동일로26길 40
막스까르띠지오,서울특별시 광진구 자양로15길 31 (자양동) 1층,소매,섬유·의복·신발 소매,여성 의류 소매업,127.08182373321,37.5353902298616,서울특별시 광진구 자양로15길 31
더블유피티스튜디오,서울특별시 광진구 아차산로 637 (광장동) 3층,예술·스포츠,스포츠 서비스,헬스장,127.107590529973,37.5513111458743,서울특별시 광진구 아차산로 637
우유리,서울특별시 광진구 능동로 443 (중곡동) 4층,교육,기타 교육,레크리에이션 교육기관,127.085403460063,37.5683874653853,서울특별시 광진구 능동로 443
양지공인중개사사무소,서울특별시 광진구 동일로20길 119 (자양동) 1층,부동산,부동산 서비스,부동산 중개/대리업,127.070015932315,37.5395417881858,서울특별시 광진구 동일로20길 119
이히리베디히,서울특별시 광진구 영화사로 75 (구의동) 1층,음식,비알코올 ,카페,127.0942750255,37.5546337519663,서울특별시 광진구 영화사로 75
오땡큐천연머리염색,서울특별시 광진구 능동로34길 26-1 (능동) 1층,수리·개인,이용·미용,미용실,127.080722391551,37.5550516207126,서울특별시 광진구 능동로34길 26-1
샐러디,서울특별시 광진구 자양로 112 (구의동) 1층,음식,기타 간이,피자,127.083651539119,37.5376660706883,서울특별시 광진구 자양로 112
댄싱필라,서울특별시 광진구 천호대로 666 (구의동),교육,기타 교육,요가/필라테스 학원,127.08930114215,37.5513517084081,서울특별시 광진구 천호대로 666
혜민살롱,서울특별시 광진구 자양로16길 12 (자양동) 1층,수리·개인,이용·미용,미용실,127.084461490851,37.53620363625,서울특별시 광진구 자양로16길 12
마카롱,서울특별시 광진구 천호대로 583 (중곡동) 2층,예술·스포츠,유원지·오락,기타 오락장,127.082858792278,37.5561945479593,서울특별시 광진구 천호대로 583
드루와노래방,서울특별시 광진구 동일로22길 33 (화양동) 1층,예술·스포츠,유원지·오락,노래방,127.066146954047,37.5421873776328,서울특별시 광진구 동일로22길 33
블랙노드,서울특별시 광진구 긴고랑로20길 2-10 (중곡동),과학·기술,전문 디자인,인테리어 디자인업,127.08334964352,37.5613974174667,서울특별시 광진구 긴고랑로20길 2-10
큐리오레이션,서울특별시 광진구 천호대로 632 (능동) 5층,시설관리·임대,기타 사업 서비스,전시/컨벤션/행사 대행 서비스업,127.087337376547,37.5536882889711,서울특별시 광진구 천호대로 632
플레이키즈프로,서울특별시 광진구 능동로 92 (자양동) 8층,소매,섬유·의복·신발 소매,유아용 의류 소매업,127.07119956705,37.538992451652,서울특별시 광진구 능동로 92
인터라인플러스,서울특별시 광진구 아차산로78길 44 (광장동) 4층,시설관리·임대,기타 사업 서비스,전시/컨벤션/행사 대행 서비스업,127.10988340294,37.5507427688594,서울특별시 광진구 아차산로78길 44
와이제이,서울특별시 광진구 능동로47길 37-1 (중곡동) 2층,소매,식료품 소매,건어물/젓갈 소매업,127.080414165726,37.5635551286341,서울특별시 광진구 능동로47길 37-1
디자인오늘,서울특별시 광진구 능동로32길 34 (능동) 1층,과학·기술,기술 서비스,건축 설계 및 관련 서비스업,127.08038808955,37.5546255237923,서울특별시 광진구 능동로32길 34
야밤또주,서울특별시 광진구 아차산로 295 (자양동),음식,주점,요리 주점,127.075922678083,37.5386240325992,서울특별시 광진구 아차산로 295
힐링,서울특별시 광진구 면목로 100 (중곡동) 1층,소매,섬유·의복·신발 소매,여성 의류 소매업,127.07953300245,37.5624940346015,서울특별시 광진구 면목로 100
라미커뮤니케이션,서울특별시 광진구 뚝섬로30길 21-11 (자양동) 2층,과학·기술,광고,광고 대행업,127.066353765933,37.5355843039096,서울특별시 광진구 뚝섬로30길 21-11
케이에이치한,서울특별시 광진구 용마산로30길 43-7 (중곡동),과학·기술,본사·경영 컨설팅,경영 컨설팅업,127.088283298317,37.5689413595177,서울특별시 광진구 용마산로30길 43-7
벨르,서울특별시 광진구 아차산로70길 62 (광장동) 2층,소매,섬유·의복·신발 소매,신발 소매업,127.098973887044,37.5403699993872,서울특별시 광진구 아차산로70길 62
상상크린,서울특별시 광진구 능동로3마길 7-4 (자양동),시설관리·임대,청소·방제,건축물 일반 청소업,127.064521311174,37.5346327077682,서울특별시 광진구 능동로3마길 7-4
아뜰리에WDFLOWER,서울특별시 광진구 자양번영로8길 12 (자양동) 1층,교육,기타 교육,기타 기술/직업 훈련학원,127.076712432612,37.5342240619887,서울특별시 광진구 자양번영로8길 12
강동텔레콤,서울특별시 광진구 광나루로56길 85 (구의동) 6층,소매,가전·통신 소매,핸드폰 소매업,127.095680669092,37.53571340911,서울특별시 광진구 광나루로56길 85
궁전,서울특별시 광진구 자양로13길 26 (자양동) 지층,음식,주점,요리 주점,127.082629778413,37.5351712308749,서울특별시 광진구 자양로13길 26
은지세,서울특별시 광진구 능동로41길 6 (중곡동) 1층,음식,기타 간이,빵/도넛,127.080470442213,37.5598973070887,서울특별시 광진구 능동로41길 6
준하네포차,서울특별시 광진구 동일로18길 62 (자양동) 1층,음식,주점,요리 주점,127.066039645647,37.5389968068445,서울특별시 광진구 동일로18길 62
다옴순대국감자탕군자점,서울특별시 광진구 천호대로 546 (군자동) 1층,음식,한식,백반/한정식,127.07864808475,37.5571439091358,서울특별시 광진구 천호대로 546
델트,서울특별시 광진구 광나루로54길 83 (구의동) 1층,음식,기타 간이,빵/도넛,127.094389206553,37.5377128624743,서울특별시 광진구 광나루로54길 83
피자마루중곡,서울특별시 광진구 용마산로 47 (중곡동) 1층,음식,기타 간이,피자,127.08760448289,37.5577721125171,서울특별시 광진구 용마산로 47
카이지아,서울특별시 광진구 능동로37길 10-3 (중곡동) 6층,소매,의약·화장품 소매,화장품 소매업,127.07926843195,37.5582390186355,서울특별시 광진구 능동로37길 10-3
위밋업스포츠,서울특별시 광진구 아차산로30길 36 (자양동),교육,기타 교육,요가/필라테스 학원,127.066702253042,37.5393985083357,서울특별시 광진구 아차산로30길 36
군자교,서울특별시 광진구 군자로 140 (군자동) 1층,음식,중식,중국집,127.074995443774,37.5541418846868,서울특별시 광진구 군자로 140
명랑핫도그아차산역,서울특별시 광진구 천호대로131길 7 (구의동),음식,기타 간이,빵/도넛,127.090542325039,37.5516586219972,서울특별시 광진구 천호대로131길 7
안다미로,서울특별시 광진구 천호대로111길 47 (중곡동) 1층,음식,기타 간이,김밥/만두/분식,127.082898758077,37.558474515019,서울특별시 광진구 천호대로111길 47
이안,서울특별시 광진구 아차산로40길 24 (자양동) 2층,시설관리·임대,고용 알선,임시/일용 인력 공급업,127.0781087892,37.5366047403348,서울특별시 광진구 아차산로40길 24
코오롱인더스트리FnC부문커먼그라운드,서울특별시 광진구 아차산로 200 (자양동),소매,섬유·의복·신발 소매,기타 의류 소매업,127.065651952175,37.5410481373377,서울특별시 광진구 아차산로 200
런드리익스프레스화양점,서울특별시 광진구 능동로13길 84 (화양동) 1층,수리·개인,세탁,세탁소,127.068755633703,37.5453436372528,서울특별시 광진구 능동로13길 84
지안씨엔에스건설기술연구소,서울특별시 광진구 천호대로 536 (군자동) 6층,과학·기술,기술 서비스,건물 및 토목 엔지니어링 서비스업,127.077579384823,37.5575320264864,서울특별시 광진구 천호대로 536
술마켓바,서울특별시 광진구 천호대로 515 (중곡동) 1층,음식,한식,백반/한정식,127.075944222433,37.5588798248882,서울특별시 광진구 천호대로 515
디자인포인트,서울특별시 광진구 능동로13길 75 (화양동) 2층,과학·기술,전문 디자인,시각 디자인업,127.06887461439,37.5448760290406,서울특별시 광진구 능동로13길 75
청솔고시원,서울특별시 광진구 동일로20길 60 (자양동) 4층,숙박,기타 숙박,기숙사/고시원,127.066677799053,37.5404525454146,서울특별시 광진구 동일로20길 60
지에스더프레시광나루점,서울특별시 광진구 아차산로 552 (광장동) 1층,소매,종합 소매,슈퍼마켓,127.104387374798,37.5437721117555,서울특별시 광진구 아차산로 552
가장맛있는족발,서울특별시 광진구 아차산로76길 25 (광장동),음식,한식,족발/보쌈,127.107945895588,37.5471329458353,서울특별시 광진구 아차산로76길 25
송지자동차공업사,서울특별시 광진구 뚝섬로52길 16 (자양동) 1층,수리·개인,자동차 수리·세차,자동차 정비소,127.079101575764,37.5313233036547,서울특별시 광진구 뚝섬로52길 16
머뭄헤어,서울특별시 광진구 군자로4길 1 (화양동) 1층,수리·개인,이용·미용,미용실,127.070938714131,37.5454239075536,서울특별시 광진구 군자로4길 1
국민냉면,서울특별시 광진구 자양로43길 47 (중곡동) 1층,음식,한식,냉면/밀면,127.090134203752,37.5526466341909,서울특별시 광진구 자양로43길 47
파비디,서울특별시 광진구 영화사로3나길 20 (중곡동),과학·기술,전문 디자인,시각 디자인업,127.093990713306,37.5575509757496,서울특별시 광진구 영화사로3나길 20
동경에서먹었던규동,서울특별시 광진구 광나루로 373 (군자동) 1층,음식,일식,일식 카레/돈가스/덮밥,127.07156025348,37.5482310644311,서울특별시 광진구 광나루로 373
그레이스,서울특별시 광진구 자양번영로 42 (자양동) 2층,과학·기술,광고,광고 대행업,127.075931702068,37.5333078917504,서울특별시 광진구 자양번영로 42
웃웃,서울특별시 광진구 뚝섬로 476-15 (자양동) 1층,음식,주점,일반 유흥 주점,127.062372336795,37.5363727162029,서울특별시 광진구 뚝섬로 476-15
고공,서울특별시 광진구 뚝섬로 620-1 (자양동) 1층,음식,한식,돼지고기 구이/찜,127.078548009105,37.5321749866244,서울특별시 광진구 뚝섬로 620-1
라율,서울특별시 광진구 자양로15길 59 (자양동) 1층,소매,의약·화장품 소매,화장품 소매업,127.080401503017,37.5351088473288,서울특별시 광진구 자양로15길 59
경인소비조합,서울특별시 광진구 능동로 23-14 (자양동),소매,종합 소매,슈퍼마켓,127.066939552659,37.5339760500338,서울특별시 광진구 능동로 23-14
입주청소,서울특별시 광진구 천호대로 691 (구의동) 2층,시설관리·임대,청소·방제,건축물 일반 청소업,127.091672432635,37.5499282915789,서울특별시 광진구 천호대로 691
미니이스트,서울특별시 광진구 자양로40길 16 (구의동),소매,애완동물·용품 소매,애완동물/애완용품 소매업,127.089863324235,37.5479320468536,서울특별시 광진구 자양로40길 16
빅에듀케이션리미티드,서울특별시 광진구 자양로18길 96 (구의동) 5층,교육,교육 지원,교육컨설팅업,127.088777901165,37.5385527290677,서울특별시 광진구 자양로18길 96
인사이드자,서울특별시 광진구 능동로 92 (자양동) 7층,소매,오락용품 소매,운동용품 소매업,127.07119956705,37.538992451652,서울특별시 광진구 능동로 92
킹당구장,서울특별시 광진구 광나루로 354 (화양동),예술·스포츠,스포츠 서비스,당구장,127.069153351766,37.5479417993337,서울특별시 광진구 광나루로 354
솔랙스디앤씨,서울특별시 광진구 천호대로 699 (구의동),부동산,부동산 서비스,부동산 중개/대리업,127.092310068443,37.5496088163744,서울특별시 광진구 천호대로 699
Paniel430,서울특별시 광진구 동일로46길 23-11 (군자동) 1층,과학·기술,전문 디자인,시각 디자인업,127.071298687492,37.5538065083789,서울특별시 광진구 동일로46길 23-11
스튜디오커먼굿,서울특별시 광진구 능동로 172 (화양동),과학·기술,전문 디자인,인테리어 디자인업,127.073964658766,37.5459792972265,서울특별시 광진구 능동로 172
하비코인노래연습장,서울특별시 광진구 아차산로33길 63 (화양동) 1층,예술·스포츠,유원지·오락,노래방,127.070957363523,37.5430092370009,서울특별시 광진구 아차산로33길 63
포유세이프티,서울특별시 광진구 동일로64길 13 (중곡동),소매,기타 상품 소매,그 외 기타 상품 전문 소매업,127.075502211856,37.5607595574253,서울특별시 광진구 동일로64길 13
비버하우스,서울특별시 광진구 아차산로 384 (자양동) 3층,숙박,기타 숙박,기숙사/고시원,127.085440308886,37.5366617474821,서울특별시 광진구 아차산로 384
감성빈티지,서울특별시 광진구 아차산로29길 8 (화양동),소매,섬유·의복·신발 소매,남성 의류 소매업,127.068308775325,37.5412403293406,서울특별시 광진구 아차산로29길 8
유하브로우,서울특별시 광진구 답십리로 392 (중곡동) 1층,수리·개인,이용·미용,피부 관리실,127.083875489447,37.5711418362069,서울특별시 광진구 답십리로 392
파티스튜디오,서울특별시 광진구 군자로 146 (군자동) 지층,과학·기술,사진 촬영,사진촬영업,127.075603429485,37.5543989402719,서울특별시 광진구 군자로 146
연길냉면,서울특별시 광진구 동일로18길 86 (자양동) 1층,음식,한식,냉면/밀면,127.067336555245,37.5384393944257,서울특별시 광진구 동일로18길 86
더은결헤어미장,서울특별시 광진구 능동로 171 (화양동) 1층,수리·개인,이용·미용,미용실,127.073239019351,37.546090740853,서울특별시 광진구 능동로 171
이디야커피군자역점,서울특별시 광진구 능동로 290 (능동) 1층,음식,비알코올 ,카페,127.078961626501,37.5555785285795,서울특별시 광진구 능동로 290
청담에프앤비,서울특별시 광진구 구의강변로 92 (구의동) 1층,음식,한식,돼지고기 구이/찜,127.094163554292,37.5385941643444,서울특별시 광진구 구의강변로 92
돌체피아노,서울특별시 광진구 자양번영로11길 35-13 (자양동) 1층,교육,기타 교육,음악학원,127.074631701799,37.536874892019,서울특별시 광진구 자양번영로11길 35-13
덮밥;랍스터를담다,서울특별시 광진구 자양번영로2길 26 (자양동) 1층,음식,한식,기타 한식 음식점,127.076355140194,37.5301665277942,서울특별시 광진구 자양번영로2길 26
제이라이브7080,서울특별시 광진구 천호대로112길 7 (능동),음식,주점,요리 주점,127.08157528534,37.5556439408052,서울특별시 광진구 천호대로112길 7
큐당구장,서울특별시 광진구 아차산로33길 63 (화양동) 3층,예술·스포츠,스포츠 서비스,당구장,127.070957363523,37.5430092370009,서울특별시 광진구 아차산로33길 63
산해진미,서울특별시 광진구 영화사로 5-6 (중곡동) 1층,음식,한식,백반/한정식,127.088614259995,37.5585007517403,서울특별시 광진구 영화사로 5-6
오늘도설렘네일,서울특별시 광진구 능동로53길 37 (중곡동) 1층,수리·개인,이용·미용,네일숍,127.08243306964,37.5669137279216,서울특별시 광진구 능동로53길 37
메타랜드,서울특별시 광진구 능동로13길 75 (화양동) 2층,소매,종합 소매,슈퍼마켓,127.06887461439,37.5448760290406,서울특별시 광진구 능동로13길 75
아차산막국수,서울특별시 광진구 자양로 319 (구의동) 1층,음식,한식,국수/칼국수,127.093717585214,37.553935665085,서울특별시 광진구 자양로 319
씨유중곡,서울특별시 광진구 긴고랑로36길 71 (중곡동) 1층,소매,종합 소매,편의점,127.091850491823,37.5567055664657,서울특별시 광진구 긴고랑로36길 71
포그니,서울특별시 광진구 면목로 109-1 (중곡동) 2층,음식,한식,백반/한정식,127.079655407162,37.563585258127,서울특별시 광진구 면목로 109-1
하늘봄,서울특별시 광진구 광장로 53 (광장동),수리·개인,이용·미용,네일숍,127.103033896398,37.5471768297572,서울특별시 광진구 광장로 53
카페인모아,서울특별시 광진구 아차산로 292 (자양동) 1층,음식,비알코올 ,카페,127.075270228549,37.5383125673564,서울특별시 광진구 아차산로 292
그린램프라이브러리광장캠퍼스독서실,서울특별시 광진구 아차산로 471 (구의동) 4층,예술·스포츠,도서관·사적지,독서실/스터디 카페,127.094084636403,37.5404407185141,서울특별시 광진구 아차산로 471
다시봄날의원,서울특별시 광진구 능동로 69 (자양동) 2층,보건의료,의원,성형외과 의원,127.069076044466,37.5377773311572,서울특별시 광진구 능동로 69
오제이패밀리,서울특별시 광진구 천호대로 606 (능동),과학·기술,본사·경영 컨설팅,경영 컨설팅업,127.084652869325,37.5547938212409,서울특별시 광진구 천호대로 606
넌부대난김밥,서울특별시 광진구 광나루로 606 (구의동) 1층,음식,기타 간이,김밥/만두/분식,127.095103166634,37.5413676022793,서울특별시 광진구 광나루로 606
자양마트,서울특별시 광진구 자양번영로1길 27 (자양동) 1층,소매,종합 소매,슈퍼마켓,127.073293922326,37.5306831782159,서울특별시 광진구 자양번영로1길 27
비어마켓,서울특별시 광진구 능동로19길 8 (화양동) 2층,음식,기타 간이,치킨,127.073419449856,37.5470562814503,서울특별시 광진구 능동로19길 8
엔케이골프클럽,서울특별시 광진구 용마산로 21 (중곡동),예술·스포츠,스포츠 서비스,골프 연습장,127.087993099826,37.555603583365,서울특별시 광진구 용마산로 21
한국능력개발진흥원,서울특별시 광진구 자양로 146-3 (구의동) 2층,교육,교육 지원,교육컨설팅업,127.08377201491,37.5407666271921,서울특별시 광진구 자양로 146-3
스페이스어,서울특별시 광진구 면목로11길 4 (중곡동),과학·기술,사진 촬영,사진촬영업,127.08135978938,37.5667431925516,서울특별시 광진구 면목로11길 4
라와마라탕,서울특별시 광진구 아차산로33길 51-4 (화양동) 2층,음식,중식,마라탕/훠궈,127.070655660968,37.5427005054299,서울특별시 광진구 아차산로33길 51-4
중곡스크린골프,서울특별시 광진구 능동로 409 (중곡동) 1층,예술·스포츠,스포츠 서비스,골프 연습장,127.083796211331,37.5655997729823,서울특별시 광진구 능동로 409
테라피,서울특별시 광진구 뚝섬로 503 (자양동) 3층,교육,기타 교육,요가/필라테스 학원,127.065996968164,37.5360680506338,서울특별시 광진구 뚝섬로 503
세이프스카이,서울특별시 광진구 동일로74길 36 (중곡동),시설관리·임대,산업용품 대여,건설기계/장비 대여업,127.079947288818,37.566542972851,서울특별시 광진구 동일로74길 36
나인PC방,서울특별시 광진구 능동로 372 (중곡동) 1층,예술·스포츠,유원지·오락,PC방,127.082658754151,37.5623561741512,서울특별시 광진구 능동로 372
네비아이,서울특별시 광진구 자양로 216 (구의동) 1층,수리·개인,자동차 수리·세차,자동차 정비소,127.086896174885,37.5462512036345,서울특별시 광진구 자양로 216
이브필라테스컴퍼니,서울특별시 광진구 능동로 121 (화양동) 2층,교육,기타 교육,레크리에이션 교육기관,127.071242782626,37.5418941783777,서울특별시 광진구 능동로 121
사브노래연습장,서울특별시 광진구 능동로36길 9 (능동) 지층,예술·스포츠,유원지·오락,노래방,127.079779009837,37.5562967315397,서울특별시 광진구 능동로36길 9
참숯바베큐,서울특별시 광진구 천호대로 808 (광장동) 1층,음식,기타 간이,치킨,127.102719694954,37.5450659785248,서울특별시 광진구 천호대로 808
엘빈,서울특별시 광진구 아차산로21길 86 (화양동),수리·개인,컴퓨터 수리,컴퓨터/노트북/프린터 수리업,127.066919403618,37.5455814357227,서울특별시 광진구 아차산로21길 86
딩동댕,서울특별시 광진구 동일로22길 37 (화양동) 1층,예술·스포츠,유원지·오락,노래방,127.066385689664,37.5420991602822,서울특별시 광진구 동일로22길 37
온리햅건강운동관리교육원,서울특별시 광진구 강변역로4길 10 (구의동) 5층,교육,기타 교육,요가/필라테스 학원,127.093388186348,37.5353444204635,서울특별시 광진구 강변역로4길 10
유준이앤씨,서울특별시 광진구 구의강변로 35 (구의동) 7층,과학·기술,기술 서비스,도시 계획 및 조경 설계 서비스업,127.091357421628,37.5339231682288,서울특별시 광진구 구의강변로 35
컴포즈커피,서울특별시 광진구 능동로13길 30 (화양동) 1층,음식,비알코올 ,카페,127.070579159,37.543393712876,서울특별시 광진구 능동로13길 30
영각,서울특별시 광진구 면목로 56 (중곡동) 1층,음식,중식,중국집,127.077539645607,37.5589193323367,서울특별시 광진구 면목로 56
소반돼지반,서울특별시 광진구 능동로13길 58 (화양동),소매,식료품 소매,정육점,127.069661974611,37.5443506149909,서울특별시 광진구 능동로13길 58
하동우렁추어탕,서울특별시 광진구 자양로 277 (구의동),음식,한식,국/탕/찌개류,127.091084698253,37.5507977889078,서울특별시 광진구 자양로 277
백쉐프초밥가게,서울특별시 광진구 광나루로 410 (화양동) 1층,음식,일식,일식 회/초밥,127.075032614343,37.5465553300277,서울특별시 광진구 광나루로 410
네스피,서울특별시 광진구 능동로 276 (능동) 4층,과학·기술,기술 서비스,환경 관련 엔지니어링 서비스업,127.07829659285,37.5544380157887,서울특별시 광진구 능동로 276
여름숲,서울특별시 광진구 능동로7길 41-12 (자양동),과학·기술,전문 디자인,시각 디자인업,127.066925697224,37.5369043604433,서울특별시 광진구 능동로7길 41-12
이앤디,서울특별시 광진구 천호대로 650 (능동),소매,오락용품 소매,운동용품 소매업,127.088763917891,37.5527171614776,서울특별시 광진구 천호대로 650
두남,서울특별시 광진구 아차산로31길 17 (화양동) 2층,음식,한식,백반/한정식,127.069523040272,37.5418716292124,서울특별시 광진구 아차산로31길 17
호텔컬리넌건대2,서울특별시 광진구 동일로 214 (군자동),숙박,일반 숙박,여관/모텔,127.069162985498,37.550807215343,서울특별시 광진구 동일로 214
쉐르빌고시텔,서울특별시 광진구 군자로 73 (군자동) 3층,숙박,기타 숙박,기숙사/고시원,127.070580288199,37.5496830567192,서울특별시 광진구 군자로 73
성수완당,서울특별시 광진구 아차산로51길 4 (구의동),음식,한식,백반/한정식,127.08542107211,37.5373103568477,서울특별시 광진구 아차산로51길 4
칠리디자인,서울특별시 광진구 자양로45길 24-10 (구의동),과학·기술,전문 디자인,시각 디자인업,127.091675765923,37.55245126153,서울특별시 광진구 자양로45길 24-10
성심공인중개사사무소,서울특별시 광진구 능동로48길 28 (중곡동) 1층,부동산,부동산 서비스,부동산 중개/대리업,127.08405152603,37.5623129247695,서울특별시 광진구 능동로48길 28
센티피드컴퍼니,서울특별시 광진구 긴고랑로13길 33 (중곡동) 1층,소매,섬유·의복·신발 소매,여성 의류 소매업,127.082321627127,37.564002474117,서울특별시 광진구 긴고랑로13길 33
메디맨,서울특별시 광진구 능동로 275 (군자동) 3층,수리·개인,가전제품 수리,가전제품 수리업,127.077706789302,37.5545415361136,서울특별시 광진구 능동로 275
연이엔씨,서울특별시 광진구 천호대로123길 61 (중곡동) 5층,과학·기술,기술 서비스,건물 및 토목 엔지니어링 서비스업,127.086381006101,37.5578617669792,서울특별시 광진구 천호대로123길 61
제이앤제이,서울특별시 광진구 광나루로56길 85 (구의동) 1층,소매,섬유·의복·신발 소매,기타 의류 소매업,127.095680669092,37.53571340911,서울특별시 광진구 광나루로56길 85
연서헤어,서울특별시 광진구 동일로10길 17 (자양동),수리·개인,이용·미용,미용실,127.063091667015,37.5385679811055,서울특별시 광진구 동일로10길 17
와9이닭,서울특별시 광진구 자양로13나길 34 (자양동) 1층,음식,기타 간이,치킨,127.079514243566,37.5345703133919,서울특별시 광진구 자양로13나길 34
락진푸드,서울특별시 광진구 군자로 83 (군자동) 1층,음식,기타 간이,김밥/만두/분식,127.070885840776,37.5505955222815,서울특별시 광진구 군자로 83
필라인레이디스,서울특별시 광진구 동일로46길 23-11 (군자동),소매,섬유·의복·신발 소매,기타 의류 소매업,127.071298687492,37.5538065083789,서울특별시 광진구 동일로46길 23-11
임현경경제연구소,서울특별시 광진구 아차산로78길 75 (광장동),과학·기술,본사·경영 컨설팅,경영 컨설팅업,127.110971130975,37.5515889428079,서울특별시 광진구 아차산로78길 75
백년트랩,서울특별시 광진구 동일로66길 26 (중곡동) 1층,시설관리·임대,청소·방제,건축물 일반 청소업,127.076468750433,37.5613167618654,서울특별시 광진구 동일로66길 26
금밥이레,서울특별시 광진구 자양로 206 (구의동),음식,한식,백반/한정식,127.086056199066,37.5455328741169,서울특별시 광진구 자양로 206
점핑콩,서울특별시 광진구 뚝섬로 609-1 (자양동) 2층,예술·스포츠,스포츠 서비스,헬스장,127.077579047606,37.5327621174582,서울특별시 광진구 뚝섬로 609-1
에이미스,서울특별시 광진구 강변역로 2 (구의동) 1층,음식,비알코올 ,카페,127.089941933182,37.5377417469435,서울특별시 광진구 강변역로 2
세종뷰티이엠뷰티건대,서울특별시 광진구 능동로 69 (자양동) 2층,수리·개인,이용·미용,피부 관리실,127.069076044466,37.5377773311572,서울특별시 광진구 능동로 69
수경에어컨시스템,서울특별시 광진구 용마산로24길 20 (중곡동) 1층,소매,가전·통신 소매,가전제품 소매업,127.087751740232,37.5651888897664,서울특별시 광진구 용마산로24길 20
아이앤아이리서치,서울특별시 광진구 광나루로 416 (화양동) 01층,과학·기술,시장 조사,시장 조사 및 여론 조사업,127.075565780456,37.5464513792064,서울특별시 광진구 광나루로 416
트리뷰디앤씨,서울특별시 광진구 자양로 187 (구의동) 2층,부동산,부동산 서비스,부동산 중개/대리업,127.084791544112,37.5443787428482,서울특별시 광진구 자양로 187
블루,서울특별시 광진구 아차산로25길 15 (화양동) 1층,음식,주점,요리 주점,127.066702168558,37.5421286935917,서울특별시 광진구 아차산로25길 15
청정24시스터디카페,서울특별시 광진구 자양로3길 55 (자양동) 2층,예술·스포츠,도서관·사적지,독서실/스터디 카페,127.083910231334,37.529468489369,서울특별시 광진구 자양로3길 55
넥서스산업개발,서울특별시 광진구 능동로27가길 20 (군자동),교육,기타 교육,직원 훈련기관,127.075692439041,37.5536067130448,서울특별시 광진구 능동로27가길 20
미르컴,서울특별시 광진구 천호대로110길 100 (능동),수리·개인,컴퓨터 수리,컴퓨터/노트북/프린터 수리업,127.077985501082,37.5530479694796,서울특별시 광진구 천호대로110길 100
하루byH,서울특별시 광진구 광장로 58 (광장동) 1층,수리·개인,이용·미용,미용실,127.103454413004,37.5470268443859,서울특별시 광진구 광장로 58
강동세차시샘,서울특별시 광진구 아차산로 229 (화양동) 17층,수리·개인,자동차 수리·세차,자동차 세차장,127.06899348461,37.5407771828983,서울특별시 광진구 아차산로 229
체리커피,서울특별시 광진구 능동로 284 (능동) 2층,음식,비알코올 ,카페,127.078706661297,37.5551440353372,서울특별시 광진구 능동로 284
더불어자산관리,서울특별시 광진구 긴고랑로5길 18 (중곡동) 3층,과학·기술,본사·경영 컨설팅,경영 컨설팅업,127.07925440079,37.5648976626097,서울특별시 광진구 긴고랑로5길 18
어블리,서울특별시 광진구 천호대로 516 (군자동) 1층,음식,비알코올 ,카페,127.075668187497,37.5583190135317,서울특별시 광진구 천호대로 516
타노,서울특별시 광진구 용마산로20길 9-1 (중곡동),과학·기술,전문 디자인,인테리어 디자인업,127.087610973227,37.5628090316747,서울특별시 광진구 용마산로20길 9-1
스카이필라테스&요가,서울특별시 광진구 자양로 95 (자양동),교육,기타 교육,요가/필라테스 학원,127.083182676309,37.5362207464812,서울특별시 광진구 자양로 95
옥쌤,서울특별시 광진구 구의로16길 95 (구의동) 1층,교육,일반 교육,입시·교과학원,127.094661561436,37.5413912489974,서울특별시 광진구 구의로16길 95
다온홈테크,서울특별시 광진구 아차산로38길 16 (자양동) 1층,소매,가전·통신 소매,가전제품 소매업,127.074676582465,37.5378213488273,서울특별시 광진구 아차산로38길 16
필라테스하는물리치료사,서울특별시 광진구 구의강변로 94 (구의동) 2층,교육,기타 교육,요가/필라테스 학원,127.095051740351,37.5381324262183,서울특별시 광진구 구의강변로 94
초지일관홍대리,서울특별시 광진구 아차산로34길 7 (자양동) 1층,음식,주점,요리 주점,127.069685237894,37.5397464252832,서울특별시 광진구 아차산로34길 7
컴퓨터수리,서울특별시 광진구 영화사로5길 35 (중곡동),수리·개인,컴퓨터 수리,컴퓨터/노트북/프린터 수리업,127.09256364459,37.5576301213855,서울특별시 광진구 영화사로5길 35
넥스트에디션건대,서울특별시 광진구 아차산로31길 9-1 (화양동) 1층,예술·스포츠,유원지·오락,기타 오락장,127.06934603474,37.5415458557789,서울특별시 광진구 아차산로31길 9-1
미가유황오리,서울특별시 광진구 동일로76길 63 (중곡동),음식,한식,돼지고기 구이/찜,127.082078584357,37.5681273876869,서울특별시 광진구 동일로76길 63
디딤컴퍼니,서울특별시 광진구 광나루로56길 29 (구의동) 4층,소매,섬유·의복·신발 소매,기타 의류 소매업,127.096514325742,37.5369542342159,서울특별시 광진구 광나루로56길 29
그린공인중개사사무소,서울특별시 광진구 아차산로 503-23 (광장동) 1층,부동산,부동산 서비스,부동산 중개/대리업,127.095590784994,37.5431554231251,서울특별시 광진구 아차산로 503-23
디엔토와이,서울특별시 광진구 아차산로25길 74-3 (화양동),교육,기타 교육,외국어학원,127.068346832826,37.5445474876979,서울특별시 광진구 아차산로25길 74-3
만물알뜰매장,서울특별시 광진구 천호대로124길 106 (능동) 2층,소매,가전·통신 소매,가전제품 소매업,127.084114373228,37.5525550396261,서울특별시 광진구 천호대로124길 106
군자산책,서울특별시 광진구 능동로44길 41 (중곡동) 1층,음식,한식,백반/한정식,127.083872735534,37.5602751656383,서울특별시 광진구 능동로44길 41
로얄,서울특별시 광진구 아차산로 388-1 (자양동),수리·개인,욕탕·신체관리,마사지/안마,127.085890782881,37.5368364354866,서울특별시 광진구 아차산로 388-1
중앙통신,서울특별시 광진구 광나루로22가길 6 (화양동) 3층,소매,가전·통신 소매,핸드폰 소매업,127.075591526755,37.5461992864285,서울특별시 광진구 광나루로22가길 6
오케이,서울특별시 광진구 뚝섬로 626 (자양동) 지층,예술·스포츠,유원지·오락,노래방,127.079092935131,37.5320260581163,서울특별시 광진구 뚝섬로 626
별과음악사이,서울특별시 광진구 긴고랑로 50 (중곡동) 1층,음식,주점,요리 주점,127.081651787245,37.5623213142766,서울특별시 광진구 긴고랑로 50
더수,서울특별시 광진구 자양로13길 79 (자양동) 1층,수리·개인,이용·미용,네일숍,127.080719440449,37.5331740579608,서울특별시 광진구 자양로13길 79
느루건축,서울특별시 광진구 동일로 416 (중곡동) 3층,과학·기술,기술 서비스,건축 설계 및 관련 서비스업,127.078522476665,37.5673428038386,서울특별시 광진구 동일로 416
휴호스텔,서울특별시 광진구 자양로18길 26 (구의동) 4층,숙박,기타 숙박,그 외 기타 숙박업,127.085088777675,37.5376501830328,서울특별시 광진구 자양로18길 26
반도OA,서울특별시 광진구 천호대로120길 44 (능동),소매,기타 상품 소매,그 외 기타 상품 전문 소매업,127.085701763769,37.5523150479813,서울특별시 광진구 천호대로120길 44
렘시스,서울특별시 광진구 광나루로 436 (화양동) 5층,과학·기술,기술 서비스,기타 엔지니어링 서비스업,127.077726611494,37.5455852460257,서울특별시 광진구 광나루로 436
피치랑,서울특별시 광진구 아차산로40길 55 (자양동) 1층,음식,기타 간이,피자,127.07780985857,37.5351517110898,서울특별시 광진구 아차산로40길 55
롯데스타시티빈폴레이디스,서울특별시 광진구 능동로 92 (자양동) 4층,소매,섬유·의복·신발 소매,여성 의류 소매업,127.07119956705,37.538992451652,서울특별시 광진구 능동로 92
고약국,서울특별시 광진구 구의로 7 (구의동) 1층,소매,의약·화장품 소매,약국,127.089048898399,37.5385998725552,서울특별시 광진구 구의로 7
세계로정육점,서울특별시 광진구 군자로 75 (군자동) 1층,소매,식료품 소매,정육점,127.070622755499,37.5499086535799,서울특별시 광진구 군자로 75
에이미,서울특별시 광진구 자양로11길 30 (자양동),소매,섬유·의복·신발 소매,기타 의류 소매업,127.082618408093,37.5342520680598,서울특별시 광진구 자양로11길 30
폰나무,서울특별시 광진구 광나루로56길 85 (구의동) 6층,소매,중고 상품 소매,중고 상품 소매업,127.095680669092,37.53571340911,서울특별시 광진구 광나루로56길 85
려필라테스,서울특별시 광진구 아차산로78길 7 (광장동) 1층,교육,기타 교육,요가/필라테스 학원,127.109276719188,37.5503687621613,서울특별시 광진구 아차산로78길 7
폰시티,서울특별시 광진구 광나루로56길 85 (구의동) 6층,소매,가전·통신 소매,핸드폰 소매업,127.095680669092,37.53571340911,서울특별시 광진구 광나루로56길 85
몽골산업개발,서울특별시 광진구 광나루로56길 85 (구의동) 7층,과학·기술,본사·경영 컨설팅,경영 컨설팅업,127.095680669092,37.53571340911,서울특별시 광진구 광나루로56길 85
라라뷰티,서울특별시 광진구 아차산로39길 37 (자양동) 2층,수리·개인,이용·미용,네일숍,127.0756702033,37.5389103933838,서울특별시 광진구 아차산로39길 37
팬시,서울특별시 광진구 동일로 411 (중곡동) 1층,음식,비알코올 ,카페,127.077866324994,37.5673106490631,서울특별시 광진구 동일로 411
여행동아리웰니스관광,서울특별시 광진구 능동로40길 8 (중곡동),시설관리·임대,여행사·보조,기타 여행 보조/예약 서비스업,127.080537744739,37.5581047424551,서울특별시 광진구 능동로40길 8
코믹스토리,서울특별시 광진구 뚝섬로23길 48 (자양동) 1층,시설관리·임대,가정용품 대여,만화방,127.066028290216,37.5371856028849,서울특별시 광진구 뚝섬로23길 48
스칼렛,서울특별시 광진구 아차산로51길 36 (구의동) 2층,음식,주점,요리 주점,127.08510094855,37.5385062777502,서울특별시 광진구 아차산로51길 36
비비필름,서울특별시 광진구 면목로 83 (중곡동) 2층,과학·기술,사진 촬영,사진촬영업,127.078518047632,37.5612697009262,서울특별시 광진구 면목로 83
스시노칸도어린이대공원역점,서울특별시 광진구 광나루로 369 (군자동) 2층,음식,일식,일식 회/초밥,127.07103693168,37.5484522110591,서울특별시 광진구 광나루로 369
군자역스마트공인중개사사무소,서울특별시 광진구 천호대로 530 (군자동),부동산,부동산 서비스,부동산 중개/대리업,127.0770225074,37.5577168949014,서울특별시 광진구 천호대로 530
킹리,서울특별시 광진구 아차산로57길 10-1 (구의동) 1층,음식,주점,요리 주점,127.088376413245,37.5390001569182,서울특별시 광진구 아차산로57길 10-1
송파족발,서울특별시 광진구 아차산로 431 (구의동) 1층,음식,한식,족발/보쌈,127.090168585722,37.5386445468198,서울특별시 광진구 아차산로 431
롯데스타시티점라인,서울특별시 광진구 능동로 92 (자양동) 3층,소매,섬유·의복·신발 소매,여성 의류 소매업,127.07119956705,37.538992451652,서울특별시 광진구 능동로 92
코후쿠행복,서울특별시 광진구 아차산로29길 24 (화양동) 2층,음식,주점,요리 주점,127.068651350523,37.5419007993371,서울특별시 광진구 아차산로29길 24
커피나무어린이대공원역점,서울특별시 광진구 광나루로19길 38 (군자동) 2층,음식,비알코올 ,카페,127.073210177707,37.5493342975485,서울특별시 광진구 광나루로19길 38
떼르,서울특별시 광진구 동일로30길 26 (화양동) 2층,교육,기타 교육,기타 예술/스포츠 교육기관,127.068592833705,37.547513885493,서울특별시 광진구 동일로30길 26
웰빙하우스,서울특별시 광진구 능동로 149-1 (화양동) 4층,숙박,기타 숙박,기숙사/고시원,127.072345576535,37.5442185492595,서울특별시 광진구 능동로 149-1
비엔나커피하우스건대스타시티점,서울특별시 광진구 능동로 92 (자양동) 2층,음식,비알코올 ,카페,127.07119956705,37.538992451652,서울특별시 광진구 능동로 92
티에이치컨설팅,서울특별시 광진구 동일로46길 23-11 (군자동) 2층,과학·기술,본사·경영 컨설팅,경영 컨설팅업,127.071298687492,37.5538065083789,서울특별시 광진구 동일로46길 23-11
카페24창업센터군자점,서울특별시 광진구 군자로 184 (군자동) 2층,과학·기술,본사·경영 컨설팅,경영 컨설팅업,127.07843627644,37.556880951641,서울특별시 광진구 군자로 184
헤어커플,서울특별시 광진구 용마산로7길 20 (중곡동) 1층,수리·개인,이용·미용,미용실,127.086555472449,37.5593318285481,서울특별시 광진구 용마산로7길 20
더펄슨아카데미,서울특별시 광진구 천호대로110길 36 (능동),교육,기타 교육,그 외 기타 교육기관,127.079322881459,37.5556534301123,서울특별시 광진구 천호대로110길 36
그린F5광진본부,서울특별시 광진구 아차산로78길 170 (광장동) 2층,시설관리·임대,청소·방제,소독; 구충 및 방제 서비스업,127.108321079096,37.5479377169447,서울특별시 광진구 아차산로78길 170
비전장식,서울특별시 광진구 뚝섬로23길 43 (자양동),소매,철물·건설자재 소매,벽지/장판/마루 소매업,127.065777356646,37.5373458073232,서울특별시 광진구 뚝섬로23길 43
경복궁퍼시픽스타,서울특별시 광진구 능동로 90 (자양동) 1층,음식,한식,백반/한정식,127.070902015585,37.53835036397,서울특별시 광진구 능동로 90
브라더임대관리,서울특별시 광진구 능동로13길 75 (화양동) 2층,시설관리·임대,시설관리,사업시설 유지·관리 서비스업,127.06887461439,37.5448760290406,서울특별시 광진구 능동로13길 75
커피타다,서울특별시 광진구 자양로28길 19 (구의동) 1층,음식,비알코올 ,카페,127.085371638014,37.5422837856386,서울특별시 광진구 자양로28길 19
광장캠퍼스,서울특별시 광진구 아차산로 471 (구의동) 4층,예술·스포츠,도서관·사적지,독서실/스터디 카페,127.094084636403,37.5404407185141,서울특별시 광진구 아차산로 471
세원전기LED조명,서울특별시 광진구 광나루로 496 (구의동) 1층,소매,기타 생활용품 소매,전기용품/조명장치 소매업,127.084491177476,37.544881003588,서울특별시 광진구 광나루로 496
씨엠파슨스,서울특별시 광진구 광나루로54길 20 (구의동),과학·기술,본사·경영 컨설팅,경영 컨설팅업,127.095275944839,37.5401795357645,서울특별시 광진구 광나루로54길 20
플랫카페,서울특별시 광진구 자양로23길 73 (구의동) 1층,음식,비알코올 ,카페,127.083680928225,37.5435862143318,서울특별시 광진구 자양로23길 73
헤어671,서울특별시 광진구 광나루로39길 11 (구의동) 2층,수리·개인,이용·미용,미용실,127.088761356386,37.5454907073754,서울특별시 광진구 광나루로39길 11
엠제이투자,서울특별시 광진구 자양번영로11길 15-3 (자양동) 3층,과학·기술,본사·경영 컨설팅,경영 컨설팅업,127.075841864668,37.5369204109281,서울특별시 광진구 자양번영로11길 15-3
수실내인테리어,서울특별시 광진구 동일로68길 54 (중곡동),과학·기술,전문 디자인,인테리어 디자인업,127.078544566475,37.561873610817,서울특별시 광진구 동일로68길 54
엑스크라임,서울특별시 광진구 아차산로29길 38 (화양동) 지층,예술·스포츠,유원지·오락,기타 오락장,127.068972534236,37.5424619839931,서울특별시 광진구 아차산로29길 38
광진구에어컨청소다하다7,서울특별시 광진구 긴고랑로7길 24 (중곡동) 3층,시설관리·임대,청소·방제,산업설비; 운송장비 및 공공장소 청소업,127.079702022888,37.564396565467,서울특별시 광진구 긴고랑로7길 24
뚱배,서울특별시 광진구 긴고랑로 25 (중곡동),음식,주점,요리 주점,127.079282573821,37.5635282881827,서울특별시 광진구 긴고랑로 25
진짜곱창,서울특별시 광진구 자양로22길 33 (구의동) 1층,음식,한식,곱창 전골/구이,127.085165288845,37.5397231976637,서울특별시 광진구 자양로22길 33
엄브로롯데스타시티점,서울특별시 광진구 능동로 92 (자양동) 7층,소매,섬유·의복·신발 소매,기타 의류 소매업,127.07119956705,37.538992451652,서울특별시 광진구 능동로 92
뷰티드메르시,서울특별시 광진구 긴고랑로20길 3 (중곡동) 1층,수리·개인,이용·미용,네일숍,127.08399895107,37.5610600581138,서울특별시 광진구 긴고랑로20길 3
아트인와인,서울특별시 광진구 뚝섬로 506-1 (자양동) B1층,소매,종합 소매,슈퍼마켓,127.066454692216,37.5356571859825,서울특별시 광진구 뚝섬로 506-1
씨유광진구의로점,서울특별시 광진구 구의로4길 39 (구의동) 1층,소매,종합 소매,편의점,127.09169592683,37.5405304954263,서울특별시 광진구 구의로4길 39
맑음사진관,서울특별시 광진구 뚝섬로52라길 29 (자양동) 지층,과학·기술,사진 촬영,사진촬영업,127.080299728065,37.5295755855147,서울특별시 광진구 뚝섬로52라길 29
썬샤인주짓수,서울특별시 광진구 능동로 368 (중곡동),교육,기타 교육,태권도/무술학원,127.082379893703,37.5620206188485,서울특별시 광진구 능동로 368
공동체희망이루기,서울특별시 광진구 아차산로60길 9 (구의동) 3층,교육,기타 교육,직원 훈련기관,127.092052458246,37.5381904986067,서울특별시 광진구 아차산로60길 9
디딤돌공인중개사사무소,서울특별시 광진구 천호대로111길 40 (중곡동) 1층,부동산,부동산 서비스,부동산 중개/대리업,127.082937789605,37.5580603352377,서울특별시 광진구 천호대로111길 40
멕시카나,서울특별시 광진구 자양로 254 (구의동) 1층,음식,기타 간이,치킨,127.0896494494,37.5487683763354,서울특별시 광진구 자양로 254
엘리트공인중개사사무소,서울특별시 광진구 능동로 377 (중곡동) 1층,부동산,부동산 서비스,부동산 중개/대리업,127.082480808171,37.5630215678028,서울특별시 광진구 능동로 377
스노우폭스플라워건대,서울특별시 광진구 아차산로 243 (화양동),소매,식물 소매,꽃집,127.069156482222,37.5404090367117,서울특별시 광진구 아차산로 243
카페수달하다,서울특별시 광진구 동일로62길 14 (중곡동),음식,비알코올 ,카페,127.074892883419,37.5596915465918,서울특별시 광진구 동일로62길 14
브랜드뉴엘티디,서울특별시 광진구 동일로 268 (군자동) 4층,과학·기술,광고,광고물 설계/제작업,127.071709944504,37.5553235059818,서울특별시 광진구 동일로 268
미형사,서울특별시 광진구 능동로32길 31 (능동) 1층,수리·개인,세탁,세탁소,127.08031753148,37.554841226283,서울특별시 광진구 능동로32길 31
가츠시,서울특별시 광진구 광나루로 418 (화양동) 1층,음식,일식,일식 회/초밥,127.075702679357,37.546362345776,서울특별시 광진구 광나루로 418
프랭크버거,서울특별시 광진구 뚝섬로 595 (자양동) 1층,음식,기타 간이,버거,127.076181933851,37.5332017231313,서울특별시 광진구 뚝섬로 595
신동두노래방,서울특별시 광진구 동일로18길 68 (자양동) 1층,예술·스포츠,유원지·오락,노래방,127.066404626511,37.5387654194902,서울특별시 광진구 동일로18길 68
셰프케이,서울특별시 광진구 천호대로127길 22 (중곡동),음식,서양식,경양식,127.090030854666,37.5537000675702,서울특별시 광진구 천호대로127길 22
다산모바일,서울특별시 광진구 광나루로56길 85 (구의동) 6층,소매,가전·통신 소매,핸드폰 소매업,127.095680669092,37.53571340911,서울특별시 광진구 광나루로56길 85
후토,서울특별시 광진구 동일로24길 98 (화양동) 2층,음식,주점,요리 주점,127.070230280124,37.5423277257285,서울특별시 광진구 동일로24길 98
임면옥,서울특별시 광진구 능동로 338 (중곡동) 1층,음식,한식,냉면/밀면,127.081029983553,37.5594961913507,서울특별시 광진구 능동로 338
사랑방이용,서울특별시 광진구 자양로53길 111 (중곡동) 1층,수리·개인,이용·미용,미용실,127.088936723355,37.5571156229056,서울특별시 광진구 자양로53길 111
에이밀,서울특별시 광진구 군자로 180 (군자동),음식,비알코올 ,카페,127.078146248951,37.5565362885835,서울특별시 광진구 군자로 180
미래푸드,서울특별시 광진구 긴고랑로36길 39 (중곡동) 1층,음식,기타 간이,그 외 기타 간이 음식점,127.090469291299,37.5576680692077,서울특별시 광진구 긴고랑로36길 39
옛사랑,서울특별시 광진구 답십리로 376 (중곡동),음식,주점,요리 주점,127.082095043029,37.5713983203755,서울특별시 광진구 답십리로 376
우리할매,서울특별시 광진구 자양로15길 72 (자양동) 1층,음식,한식,백반/한정식,127.079767595982,37.5351309408965,서울특별시 광진구 자양로15길 72
에스텔라,서울특별시 광진구 동일로 34-11 (자양동) 1층,수리·개인,자동차 수리·세차,자동차 정비소,127.061169422817,37.5357504437965,서울특별시 광진구 동일로 34-11
더블루,서울특별시 광진구 동일로24길 102 (화양동) 1층,음식,주점,요리 주점,127.070457920388,37.5422213917277,서울특별시 광진구 동일로24길 102
스마트폰114,서울특별시 광진구 광나루로56길 85 (구의동) 6층,소매,가전·통신 소매,핸드폰 소매업,127.095680669092,37.53571340911,서울특별시 광진구 광나루로56길 85
로우그라피,서울특별시 광진구 긴고랑로 78 (중곡동),과학·기술,사진 촬영,사진촬영업,127.084271570084,37.5609810784579,서울특별시 광진구 긴고랑로 78
어울림,서울특별시 광진구 광장로1나길 10 (광장동) 1층,음식,한식,백반/한정식,127.101999916397,37.5484664867045,서울특별시 광진구 광장로1나길 10
숙성회&손두부화양동,서울특별시 광진구 광나루로12길 19 (화양동) 1층,음식,한식,백반/한정식,127.067538924481,37.5467216535011,서울특별시 광진구 광나루로12길 19
지고트,서울특별시 광진구 능동로 92 (자양동) 4층,소매,섬유·의복·신발 소매,여성 의류 소매업,127.07119956705,37.538992451652,서울특별시 광진구 능동로 92
볼랩,서울특별시 광진구 뚝섬로 462 (자양동) 4층,예술·스포츠,스포츠 서비스,테니스장,127.061777237493,37.5369086207024,서울특별시 광진구 뚝섬로 462
형제바이크,서울특별시 광진구 광나루로24길 9 (화양동) 2층,시설관리·임대,운송장비 대여,기타 운송장비 대여업,127.076432541987,37.5459085205399,서울특별시 광진구 광나루로24길 9
어번던트,서울특별시 광진구 천호대로111길 20 (중곡동) 1층,음식,비알코올 ,카페,127.082507019552,37.5571919805524,서울특별시 광진구 천호대로111길 20
성우케이앤씨,서울특별시 광진구 자양로 136 (구의동) 2층,소매,기타 생활용품 소매,주방/가정용품 소매업,127.083388022568,37.5397814997975,서울특별시 광진구 자양로 136
라운지,서울특별시 광진구 동일로22길 71 (화양동) 3층,음식,주점,요리 주점,127.068192376349,37.5415007158202,서울특별시 광진구 동일로22길 71
기아오토큐,서울특별시 광진구 자양로 46 (자양동),수리·개인,자동차 수리·세차,자동차 정비소,127.085947416439,37.5321964474838,서울특별시 광진구 자양로 46
일팔공일오,서울특별시 광진구 뚝섬로28길 4 (자양동) 1층,음식,기타 간이,빵/도넛,127.064706729486,37.5360938808924,서울특별시 광진구 뚝섬로28길 4
우송산업,서울특별시 광진구 천호대로 572 (능동) 2층,시설관리·임대,시설관리,사업시설 유지·관리 서비스업,127.081219482209,37.5560466451658,서울특별시 광진구 천호대로 572
제이업뷰티래쉬,서울특별시 광진구 아차산로51길 77 (구의동) 1층,수리·개인,이용·미용,피부 관리실,127.084941173474,37.5404693349946,서울특별시 광진구 아차산로51길 77
멋쟁이가발,서울특별시 광진구 면목로 150 (중곡동) 1층,소매,섬유·의복·신발 소매,가발 소매업,127.081836056353,37.5666748136754,서울특별시 광진구 면목로 150
철물,서울특별시 광진구 아차산로 348 (자양동),소매,철물·건설자재 소매,철물/공구 소매업,127.081342180098,37.5368281697476,서울특별시 광진구 아차산로 348
삼원어닝시스템,서울특별시 광진구 자양로3길 65-8 (자양동) 1층,소매,섬유·의복·신발 소매,남성 의류 소매업,127.083008721166,37.5291731555299,서울특별시 광진구 자양로3길 65-8
큰나무성향미술,서울특별시 광진구 자양로4길 43 (자양동) 1층,교육,기타 교육,미술학원,127.08844483166,37.5324500250651,서울특별시 광진구 자양로4길 43
수수授受,서울특별시 광진구 능동로36길 186 (능동) 2층,음식,비알코올 ,카페,127.088269832264,37.5523979794145,서울특별시 광진구 능동로36길 186
굿케어군자요양보호사교육원,서울특별시 광진구 군자로 75 (군자동) 2층,교육,기타 교육,기타 기술/직업 훈련학원,127.070622755499,37.5499086535799,서울특별시 광진구 군자로 75
바다킹수산,서울특별시 광진구 아차산로62길 3 (구의동) 1층,음식,한식,횟집,127.093498265575,37.5393369335475,서울특별시 광진구 아차산로62길 3
더그래픽노블스,서울특별시 광진구 자양로 214 (구의동) 4층,과학·기술,전문 디자인,시각 디자인업,127.086683487944,37.546060337836,서울특별시 광진구 자양로 214
공백,서울특별시 광진구 자양번영로3길 37 (자양동) 1층,음식,비알코올 ,카페,127.073039509173,37.5320417720221,서울특별시 광진구 자양번영로3길 37
씨유광진,서울특별시 광진구 동일로62길 13 (중곡동) 1층,소매,종합 소매,편의점,127.074970101223,37.559854340461,서울특별시 광진구 동일로62길 13
봄희,서울특별시 광진구 면목로16길 4 (중곡동) 1층,음식,비알코올 ,카페,127.083308308602,37.569389399974,서울특별시 광진구 면목로16길 4
리우인터랙티브,서울특별시 광진구 능동로13길 75 (화양동) 2층,과학·기술,광고,광고 대행업,127.06887461439,37.5448760290406,서울특별시 광진구 능동로13길 75
들꽃바버샵,서울특별시 광진구 아차산로 301 (자양동) 1층,수리·개인,이용·미용,미용실,127.076478748374,37.5384932248582,서울특별시 광진구 아차산로 301
강변식품,서울특별시 광진구 구의강변로 45 (구의동),소매,종합 소매,슈퍼마켓,127.091289265139,37.5348777610673,서울특별시 광진구 구의강변로 45
데일리식품광,서울특별시 광진구 광나루로 619 (광장동) 1층,소매,식료품 소매,반찬/식료품 소매업,127.09662381139,37.54100981342,서울특별시 광진구 광나루로 619
라이트잇,서울특별시 광진구 광나루로37길 12 (구의동) 1층,음식,서양식,경양식,127.087777792106,37.5454110288645,서울특별시 광진구 광나루로37길 12
달리는커피,서울특별시 광진구 광장로 78 (광장동) 1층,음식,비알코올 ,카페,127.105620356489,37.5476019228177,서울특별시 광진구 광장로 78
미소안경,서울특별시 광진구 뚝섬로 606 (자양동) 1층,소매,안경·정밀기기 소매,안경렌즈 소매업,127.076844893381,37.5326572649175,서울특별시 광진구 뚝섬로 606
모두엠앤에이,서울특별시 광진구 구의강변로 83 (구의동) 5층,과학·기술,기타 전문 과학,사업/무형 재산권 중개업,127.093490143485,37.5381384700118,서울특별시 광진구 구의강변로 83
넬솜커피,서울특별시 광진구 답십리로 398 (중곡동) 1층,음식,비알코올 ,카페,127.084658064842,37.5710217598887,서울특별시 광진구 답십리로 398
노미니스튜디오,서울특별시 광진구 능동로 341 (중곡동) 1층,과학·기술,사진 촬영,사진촬영업,127.080785563648,37.5600439288612,서울특별시 광진구 능동로 341
소도,서울특별시 광진구 자양로37가길 4 (구의동) 1층,음식,한식,백반/한정식,127.087374836583,37.547831744914,서울특별시 광진구 자양로37가길 4
그림일미리,서울특별시 광진구 천호대로104길 23 (군자동) 1층,수리·개인,이용·미용,피부 관리실,127.075486701968,37.5574345640699,서울특별시 광진구 천호대로104길 23
먹오삼,서울특별시 광진구 구의로 8 (구의동) 1층,음식,한식,백반/한정식,127.089365044023,37.5386563741243,서울특별시 광진구 구의로 8
진일이엔지,서울특별시 광진구 광나루로56길 85 (구의동) 1층,과학·기술,기술 서비스,건물 및 토목 엔지니어링 서비스업,127.095680669092,37.53571340911,서울특별시 광진구 광나루로56길 85
써치라인,서울특별시 광진구 구의강변로 45 (구의동) 3층,과학·기술,본사·경영 컨설팅,경영 컨설팅업,127.091289265139,37.5348777610673,서울특별시 광진구 구의강변로 45
핑당구클럽,서울특별시 광진구 천호대로129길 29 (중곡동) 3층,예술·스포츠,스포츠 서비스,당구장,127.091101297322,37.5531586713074,서울특별시 광진구 천호대로129길 29
단오방뚝배기떡볶이광장점,서울특별시 광진구 아차산로 502 (광장동) 1층,음식,기타 간이,김밥/만두/분식,127.097219475403,37.5413477586036,서울특별시 광진구 아차산로 502
이성보리터칭스튜디오,서울특별시 광진구 천호대로136길 19 (구의동),과학·기술,사진 촬영,사진촬영업,127.091214330136,37.5485101152959,서울특별시 광진구 천호대로136길 19
일품양평해장국,서울특별시 광진구 군자로 70 (군자동) 1층,음식,한식,국/탕/찌개류,127.070848385337,37.5490544313962,서울특별시 광진구 군자로 70
중앙행정사사무소,서울특별시 광진구 능동로 327-1 (중곡동),과학·기술,법무관련 ,기타 법무관련 서비스업,127.080232198316,37.5590214332579,서울특별시 광진구 능동로 327-1
지에스25구의,서울특별시 광진구 자양로51길 22 (구의동) 1층,소매,종합 소매,편의점,127.092437702846,37.5540159392806,서울특별시 광진구 자양로51길 22
나비아핸드메이드공방,서울특별시 광진구 뚝섬로52가길 39 (자양동) 1층,소매,섬유·의복·신발 소매,침구류/커튼 소매업,127.081505181465,37.5309185269031,서울특별시 광진구 뚝섬로52가길 39
강영진공인중개사사무소,서울특별시 광진구 아차산로70길 62 (광장동) 1층,부동산,부동산 서비스,부동산 중개/대리업,127.098973887044,37.5403699993872,서울특별시 광진구 아차산로70길 62
투맨즈헤어,서울특별시 광진구 용마산로5길 15 (중곡동) 1층,수리·개인,이용·미용,미용실,127.086950608838,37.5575598161721,서울특별시 광진구 용마산로5길 15
희망복권방,서울특별시 광진구 뚝섬로 514 (자양동) 1층,예술·스포츠,유원지·오락,복권 발행/판매업,127.067271872457,37.5354564011918,서울특별시 광진구 뚝섬로 514
명동홍두깨칼국수,서울특별시 광진구 긴고랑로11길 11 (중곡동) 1층,음식,한식,국수/칼국수,127.081281458183,37.5639042794644,서울특별시 광진구 긴고랑로11길 11
즐겨찾기,서울특별시 광진구 광나루로56길 85 (구의동) 6층,소매,가전·통신 소매,핸드폰 소매업,127.095680669092,37.53571340911,서울특별시 광진구 광나루로56길 85
트라이공인중개사사무소,서울특별시 광진구 광나루로 604 (구의동),부동산,부동산 서비스,부동산 중개/대리업,127.094896994635,37.5415732644257,서울특별시 광진구 광나루로 604
뉴에라롯데,서울특별시 광진구 능동로 92 (자양동) 3층,소매,섬유·의복·신발 소매,기타 의류 소매업,127.07119956705,37.538992451652,서울특별시 광진구 능동로 92
도깨비공인중개사사무소,서울특별시 광진구 광장로 56 (광장동) 1층,부동산,부동산 서비스,부동산 중개/대리업,127.103341579647,37.5469989560311,서울특별시 광진구 광장로 56
아우네우리돼지생고기전문,서울특별시 광진구 자양번영로 15 (자양동),음식,한식,돼지고기 구이/찜,127.074805878135,37.531019412141,서울특별시 광진구 자양번영로 15
군자점굽네치킨,서울특별시 광진구 군자로 168 (군자동) 1층,음식,기타 간이,치킨,127.077442937131,37.5557468817975,서울특별시 광진구 군자로 168
헤어코코,서울특별시 광진구 능동로53길 29 (중곡동) 1층,수리·개인,이용·미용,미용실,127.082706153628,37.5667987137521,서울특별시 광진구 능동로53길 29
동성자동차정비,서울특별시 광진구 자양로32길 31 (구의동) 1층,수리·개인,자동차 수리·세차,자동차 정비소,127.086874320834,37.5443317936398,서울특별시 광진구 자양로32길 31
에스제이공조,서울특별시 광진구 동일로4길 56-23 (자양동),수리·개인,가전제품 수리,가전제품 수리업,127.064857910121,37.5348606367524,서울특별시 광진구 동일로4길 56-23
시몬스중곡갤러리,서울특별시 광진구 천호대로 503 (중곡동),소매,가구 소매,가구 소매업,127.074738337386,37.5593749683209,서울특별시 광진구 천호대로 503
위리엠,서울특별시 광진구 자양로22길 83 (구의동) 1층,소매,섬유·의복·신발 소매,액세서리/잡화 소매업,127.088104550105,37.5399531741016,서울특별시 광진구 자양로22길 83
과일에반하다;프루타,서울특별시 광진구 동일로22길 31 (화양동) 1층,음식,비알코올 ,카페,127.066033355856,37.5422225212476,서울특별시 광진구 동일로22길 31
지에스이십오능동타운점,서울특별시 광진구 능동로32길 65 (능동) 1층,소매,종합 소매,편의점,127.082045756373,37.5541969084393,서울특별시 광진구 능동로32길 65
현대건강원,서울특별시 광진구 자양로15길 84 (자양동) 1층,소매,식료품 소매,건강보조식품 소매업,127.078955437385,37.5349263776564,서울특별시 광진구 자양로15길 84
차고집냉면,서울특별시 광진구 광나루로 410 (화양동) 1층,음식,한식,냉면/밀면,127.075032614343,37.5465553300277,서울특별시 광진구 광나루로 410
명성문구,서울특별시 광진구 능동로3라길 13 (자양동),소매,오락용품 소매,문구/회화용품 소매업,127.064862185199,37.5345182707521,서울특별시 광진구 능동로3라길 13
화양슈퍼,서울특별시 광진구 동일로22길 50 (화양동) 1층,음식,주점,요리 주점,127.066956484809,37.5416981987262,서울특별시 광진구 동일로22길 50
백일간의필라테스,서울특별시 광진구 천호대로 561 (중곡동) 11층,교육,기타 교육,요가/필라테스 학원,127.080651887676,37.5571054659597,서울특별시 광진구 천호대로 561
본죽앤비빔밥,서울특별시 광진구 자양로 113 (자양동) 1층,음식,한식,백반/한정식,127.082958502078,37.5378949645998,서울특별시 광진구 자양로 113
예진#,서울특별시 광진구 동일로72길 36 (중곡동) 1층,수리·개인,이용·미용,미용실,127.079541915313,37.5654495442612,서울특별시 광진구 동일로72길 36
제이엘에스JLS일본어교습소,서울특별시 광진구 아차산로 498 (광장동) 2층,교육,기타 교육,외국어학원,127.096790598596,37.5412543736641,서울특별시 광진구 아차산로 498
취급주의,서울특별시 광진구 자양로43길 87 (중곡동) 2층,교육,기타 교육,기타 예술/스포츠 교육기관,127.089320888355,37.554379392521,서울특별시 광진구 자양로43길 87
성수계,서울특별시 광진구 아차산로 209 (화양동) 1층,음식,한식,횟집,127.066959291749,37.5414729580666,서울특별시 광진구 아차산로 209
정직한153수학학원프리미엄관,서울특별시 광진구 아차산로 511 (광장동) 5층,교육,일반 교육,입시·교과학원,127.09812664381,37.5421295964529,서울특별시 광진구 아차산로 511
피크닉데이,서울특별시 광진구 능동로13길 101 (화양동) 1층,음식,서양식,경양식,127.068082868981,37.5457528129474,서울특별시 광진구 능동로13길 101
월드크리닝,서울특별시 광진구 동일로30길 32 (화양동),수리·개인,세탁,세탁소,127.069034929455,37.5474542983993,서울특별시 광진구 동일로30길 32
한국산업정책컨설팅,서울특별시 광진구 광나루로30나길 12-5 (구의동),과학·기술,본사·경영 컨설팅,경영 컨설팅업,127.082313675267,37.5434224177132,서울특별시 광진구 광나루로30나길 12-5
재희건축사사무소,서울특별시 광진구 능동로 251 (군자동) 3층,과학·기술,기술 서비스,건축 설계 및 관련 서비스업,127.076711622684,37.5526415528872,서울특별시 광진구 능동로 251
인컨설팅,서울특별시 광진구 자양로4나길 50 (자양동) 3층,교육,기타 교육,직원 훈련기관,127.088888637843,37.5303810249571,서울특별시 광진구 자양로4나길 50
여름앤,서울특별시 광진구 자양로23길 63 (구의동) 1층,소매,식물 소매,꽃집,127.083460250897,37.5431249650641,서울특별시 광진구 자양로23길 63
로운스마트,서울특별시 광진구 능동로 239 (군자동) 3층,소매,가전·통신 소매,가전제품 소매업,127.076137067959,37.5515107456798,서울특별시 광진구 능동로 239
승승복권,서울특별시 광진구 동일로18길 91 (자양동) 1층,예술·스포츠,유원지·오락,복권 발행/판매업,127.067730312341,37.5386227140509,서울특별시 광진구 동일로18길 91
고향반점,서울특별시 광진구 동일로18길 101 (자양동) 1층,음식,중식,중국집,127.068343191873,37.5384743721485,서울특별시 광진구 동일로18길 101
비비스클로젯,서울특별시 광진구 자양로28길 24 (구의동) 1층,소매,섬유·의복·신발 소매,여성 의류 소매업,127.085498853572,37.5420595078038,서울특별시 광진구 자양로28길 24
올스타수산,서울특별시 광진구 광나루로 619 (광장동) 1층,소매,식료품 소매,수산물 소매업,127.09662381139,37.54100981342,서울특별시 광진구 광나루로 619
고망고건대,서울특별시 광진구 아차산로30길 8 (자양동) 1층,음식,비알코올 ,카페,127.067595067381,37.5403967181158,서울특별시 광진구 아차산로30길 8
믹쓰제이블랙,서울특별시 광진구 동일로20길 63 (자양동) 지층,소매,섬유·의복·신발 소매,기타 의류 소매업,127.067072463053,37.5405637902696,서울특별시 광진구 동일로20길 63
우리공인중개사사무소,서울특별시 광진구 천호대로112길 39 (능동) 1층,부동산,부동산 서비스,부동산 중개/대리업,127.080854401726,37.554439934246,서울특별시 광진구 천호대로112길 39
프라임공인중개사사무소,서울특별시 광진구 광나루로56길 29 (구의동) 1층,부동산,부동산 서비스,부동산 중개/대리업,127.096514325742,37.5369542342159,서울특별시 광진구 광나루로56길 29
라온인사이트,서울특별시 광진구 자양로 260 (구의동) 2층,시설관리·임대,기타 사업 서비스,전시/컨벤션/행사 대행 서비스업,127.090243609141,37.5492324920906,서울특별시 광진구 자양로 260
세원,서울특별시 광진구 긴고랑로10길 55 (중곡동),과학·기술,본사·경영 컨설팅,경영 컨설팅업,127.079285431012,37.5605368274316,서울특별시 광진구 긴고랑로10길 55
동민수산시마스시건대,서울특별시 광진구 능동로 90 (자양동) 1층,음식,일식,일식 회/초밥,127.070902015585,37.53835036397,서울특별시 광진구 능동로 90
노랑통닭,서울특별시 광진구 아차산로29길 42 (화양동) 1층,음식,기타 간이,치킨,127.06901656152,37.5425614467657,서울특별시 광진구 아차산로29길 42
월드공인중개사사무소,서울특별시 광진구 능동로51길 29 (중곡동) 1층,부동산,부동산 서비스,부동산 중개/대리업,127.08250982207,37.5661934855206,서울특별시 광진구 능동로51길 29
쓰리디엔,서울특별시 광진구 아차산로78길 75 (광장동),교육,기타 교육,그 외 기타 교육기관,127.110971130975,37.5515889428079,서울특별시 광진구 아차산로78길 75
지엔에이치,서울특별시 광진구 자양로 172 (구의동) 1층,수리·개인,이용·미용,미용실,127.084683819755,37.5430083085122,서울특별시 광진구 자양로 172
대한민국베스트브랜드협회,서울특별시 광진구 능동로27가길 13 (군자동) 2층,과학·기술,광고,광고 대행업,127.07613534434,37.5534840324115,서울특별시 광진구 능동로27가길 13
나미에셋,서울특별시 광진구 능동로 275 (군자동) 3층,소매,중고 상품 소매,중고 상품 소매업,127.077706789302,37.5545415361136,서울특별시 광진구 능동로 275
유앤헤어,서울특별시 광진구 천호대로 538 (군자동) 2층,수리·개인,이용·미용,미용실,127.077875631034,37.5573721516383,서울특별시 광진구 천호대로 538
조은우리약국,서울특별시 광진구 자양로 109 (자양동) 1층,소매,의약·화장품 소매,약국,127.083077712509,37.5374003111359,서울특별시 광진구 자양로 109
향수,서울특별시 광진구 동일로 166 (화양동) 1층,음식,한식,백반/한정식,127.066970900975,37.5468973766091,서울특별시 광진구 동일로 166
노텐션,서울특별시 광진구 동일로22길 81 (화양동) 2층,과학·기술,사진 촬영,사진촬영업,127.068770325933,37.5414331908943,서울특별시 광진구 동일로22길 81
추억의수제돈까스,서울특별시 광진구 동일로52길 39 (군자동) 1층,음식,기타 간이,그 외 기타 간이 음식점,127.073355973307,37.55401189271,서울특별시 광진구 동일로52길 39
맘스터치중곡역점,서울특별시 광진구 능동로 409-1 (중곡동) 2층,음식,기타 간이,버거,127.083942248009,37.5656910111061,서울특별시 광진구 능동로 409-1
룩,서울특별시 광진구 아차산로51길 78 (구의동) 1층,교육,기타 교육,기타 예술/스포츠 교육기관,127.085213275788,37.5404263905868,서울특별시 광진구 아차산로51길 78
게릴라크리에이티브,서울특별시 광진구 자양로32길 88 (구의동) 2층,과학·기술,광고,광고물 설계/제작업,127.090003027308,37.5438873991141,서울특별시 광진구 자양로32길 88
새날공인중개사사무소,서울특별시 광진구 자양로26길 16 (구의동) 1층,부동산,부동산 서비스,부동산 중개/대리업,127.08491565412,37.5416314951189,서울특별시 광진구 자양로26길 16
짓다디엔씨,서울특별시 광진구 천호대로 580 (능동) 1층,부동산,부동산 서비스,부동산 중개/대리업,127.082140248662,37.5557204181366,서울특별시 광진구 천호대로 580
라비타37,서울특별시 광진구 자양로 203 (구의동) 1층,음식,비알코올 ,카페,127.08554513371,37.545682096204,서울특별시 광진구 자양로 203
레어피티필라테스,서울특별시 광진구 아차산로 464 (구의동) 2층,교육,기타 교육,요가/필라테스 학원,127.093619344393,37.53961718951,서울특별시 광진구 아차산로 464
스카이,서울특별시 광진구 동일로20길 72 (자양동) 지층,예술·스포츠,유원지·오락,노래방,127.067495928998,37.5401796828981,서울특별시 광진구 동일로20길 72
포계촌닭한마리,서울특별시 광진구 능동로 380 (중곡동),음식,한식,닭/오리고기 구이/찜,127.082955393878,37.5630883285473,서울특별시 광진구 능동로 380
다호,서울특별시 광진구 면목로 82 (중곡동),음식,주점,생맥주 전문,127.078770921677,37.5609563071064,서울특별시 광진구 면목로 82
맛나국수,서울특별시 광진구 긴고랑로 92 (중곡동) 1층,음식,한식,국수/칼국수,127.0855929094,37.5602975113587,서울특별시 광진구 긴고랑로 92
가죽/가방/신발 수선업,서울특별시 광진구 천호대로 548 (군자동),수리·개인,기타 가정용품 수리,가죽/가방/신발 수선업,127.079012895356,37.5569305034381,서울특별시 광진구 천호대로 548
보람공인중개사사무소,서울특별시 광진구 능동로 161 (화양동) 2층,부동산,부동산 서비스,부동산 중개/대리업,127.072774482522,37.54522208489,서울특별시 광진구 능동로 161
로이드건대스타시티점,서울특별시 광진구 아차산로 262 (자양동) 1층,소매,시계·귀금속 소매,시계/귀금속 소매업,127.072944230258,37.5369968145663,서울특별시 광진구 아차산로 262
천미식당,서울특별시 광진구 능동로 19 (자양동) 1층,음식,중식,중국집,127.06722140336,37.5331493082553,서울특별시 광진구 능동로 19
지복컨설팅,서울특별시 광진구 천호대로110길 101 (능동),부동산,부동산 서비스,부동산 중개/대리업,127.078248222794,37.5528517896655,서울특별시 광진구 천호대로110길 101
페이즈,서울특별시 광진구 능동로13길 75 (화양동) 2층,과학·기술,전문 디자인,시각 디자인업,127.06887461439,37.5448760290406,서울특별시 광진구 능동로13길 75
노떼,서울특별시 광진구 천호대로111길 44 (중곡동) 1층,음식,서양식,경양식,127.083037768505,37.5582142902507,서울특별시 광진구 천호대로111길 44
오와열,서울특별시 광진구 긴고랑로16길 88 (중곡동),과학·기술,전문 디자인,시각 디자인업,127.080773194739,37.5582867857749,서울특별시 광진구 긴고랑로16길 88
오투스페이스강변점,서울특별시 광진구 광나루로56길 85 (구의동) 2층,음식,기타 간이,김밥/만두/분식,127.095680669092,37.53571340911,서울특별시 광진구 광나루로56길 85
씨유중곡신향점,서울특별시 광진구 용마산로24길 14 (중곡동) 1층,소매,종합 소매,편의점,127.087582183873,37.5651695584947,서울특별시 광진구 용마산로24길 14
숙공방,서울특별시 광진구 아차산로34길 15 (자양동) 2층,교육,기타 교육,기타 기술/직업 훈련학원,127.069553494303,37.5394210086443,서울특별시 광진구 아차산로34길 15
이태혁세무회계사무소,서울특별시 광진구 아차산로 345 (자양동) 3층,과학·기술,회계·세무,세무사,127.081435607686,37.5375136967709,서울특별시 광진구 아차산로 345
리그PC카페,서울특별시 광진구 구의로 4 (구의동) 2층,예술·스포츠,유원지·오락,PC방,127.089267049741,37.5383402497529,서울특별시 광진구 구의로 4
각시방,서울특별시 광진구 면목로 9 (군자동) 1층,소매,섬유·의복·신발 소매,침구류/커튼 소매업,127.075243592625,37.5551259729432,서울특별시 광진구 면목로 9
더스카이스터디카페,서울특별시 광진구 자양로 163 (구의동) 3층,예술·스포츠,도서관·사적지,독서실/스터디 카페,127.083776673163,37.5422353788729,서울특별시 광진구 자양로 163
데이스튜디오,서울특별시 광진구 능동로3가길 4 (자양동),과학·기술,사진 촬영,사진촬영업,127.066015992906,37.5336353598953,서울특별시 광진구 능동로3가길 4
공공기관상조서비스,서울특별시 광진구 용마산로7길 61 (중곡동) 2층,수리·개인,장례식장 ,장례식장,127.084330072702,37.5599002725922,서울특별시 광진구 용마산로7길 61
조현우국밥,서울특별시 광진구 자양로13길 60 (자양동) 1층,음식,한식,국/탕/찌개류,127.081297577181,37.5340075261624,서울특별시 광진구 자양로13길 60
숨피아노교습소,서울특별시 광진구 동일로26길 46 (화양동) 1층,교육,기타 교육,음악학원,127.06829955361,37.5447093038367,서울특별시 광진구 동일로26길 46
이제민스튜디오,서울특별시 광진구 동일로22길 31 (화양동),과학·기술,사진 촬영,사진촬영업,127.066033355856,37.5422225212476,서울특별시 광진구 동일로22길 31
맥거핀,서울특별시 광진구 아차산로30길 36 (자양동) 2층,과학·기술,전문 디자인,시각 디자인업,127.066702253042,37.5393985083357,서울특별시 광진구 아차산로30길 36
이코투고,서울특별시 광진구 광나루로 369 (군자동) 1층,소매,식물 소매,꽃집,127.07103693168,37.5484522110591,서울특별시 광진구 광나루로 369
더풋샵강변역점,서울특별시 광진구 구의강변로 86 (구의동),수리·개인,욕탕·신체관리,마사지/안마,127.094022353452,37.5381065121792,서울특별시 광진구 구의강변로 86
에이스현수막,서울특별시 광진구 자양로36길 5 (구의동),과학·기술,인쇄·제품제작,명함/간판/광고물 제작,127.087267061225,37.546461313045,서울특별시 광진구 자양로36길 5
만수식당,서울특별시 광진구 자양로 244 (구의동),음식,한식,백반/한정식,127.089000581809,37.5481506567139,서울특별시 광진구 자양로 244
키르기즈에어,서울특별시 광진구 동일로 218 (군자동) 4층,시설관리·임대,여행사·보조,여행사,127.069306398703,37.5511056923844,서울특별시 광진구 동일로 218
백남옥손만두,서울특별시 광진구 자양로15길 3 (자양동) 1층,음식,기타 간이,김밥/만두/분식,127.083344270778,37.5359606954914,서울특별시 광진구 자양로15길 3
시도,서울특별시 광진구 자양로40길 15-6 (구의동),음식,비알코올 ,카페,127.09019907523,37.5482409919658,서울특별시 광진구 자양로40길 15-6
쉬리,서울특별시 광진구 광나루로 529 (구의동) 1층,음식,주점,일반 유흥 주점,127.088448802813,37.5451368845992,서울특별시 광진구 광나루로 529
CU자양장미점,서울특별시 광진구 동일로2길 13 (자양동) 1층,소매,종합 소매,편의점,127.061132074102,37.5351194105458,서울특별시 광진구 동일로2길 13
이디야커피건대역점,서울특별시 광진구 아차산로 229 (화양동) 1층,음식,비알코올 ,카페,127.06899348461,37.5407771828983,서울특별시 광진구 아차산로 229
큐엔헤어뷰티,서울특별시 광진구 자양로18길 62 (구의동) 1층,수리·개인,이용·미용,미용실,127.086949695279,37.5381511548049,서울특별시 광진구 자양로18길 62
미가인테리어,서울특별시 광진구 뚝섬로62길 9 (자양동) 1층,과학·기술,전문 디자인,인테리어 디자인업,127.087851703635,37.5328419091099,서울특별시 광진구 뚝섬로62길 9
짜장&탕수육,서울특별시 광진구 뚝섬로55길 39 (자양동) 1층,음식,중식,중국집,127.081435730106,37.5328912944621,서울특별시 광진구 뚝섬로55길 39
유라엔터테인먼트,서울특별시 광진구 아차산로40길 55 (자양동) 1층,시설관리·임대,산업용품 대여,기타 산업용 기계/장비 대여업,127.07780985857,37.5351517110898,서울특별시 광진구 아차산로40길 55
총각네정육점,서울특별시 광진구 능동로47길 15-1 (중곡동) 1층,소매,식료품 소매,정육점,127.081584800932,37.5631677794059,서울특별시 광진구 능동로47길 15-1
아이엔요가&필라테스화양점,서울특별시 광진구 광나루로 355 (군자동) B1층,교육,기타 교육,요가/필라테스 학원,127.069329138776,37.5483666787399,서울특별시 광진구 광나루로 355
오마이슈,서울특별시 광진구 아차산로42길 53 (자양동) 1층,음식,기타 간이,빵/도넛,127.078738812561,37.5350598458868,서울특별시 광진구 아차산로42길 53
파랑새하우스,서울특별시 광진구 동일로26길 33 (화양동),숙박,일반 숙박,펜션,127.067763249124,37.5450654913603,서울특별시 광진구 동일로26길 33
바움폼,서울특별시 광진구 아차산로36길 35 (자양동),과학·기술,기술 서비스,기타 엔지니어링 서비스업,127.074086174836,37.5370688474876,서울특별시 광진구 아차산로36길 35
펫가,서울특별시 광진구 강변역로4길 68 (구의동),소매,애완동물·용품 소매,애완동물/애완용품 소매업,127.0925842524,37.532590030538,서울특별시 광진구 강변역로4길 68
맛좋은집,서울특별시 광진구 천호대로143길 8-8 (광장동) 1층,음식,한식,백반/한정식,127.103378132098,37.545836875213,서울특별시 광진구 천호대로143길 8-8
해솔텔레콤,서울특별시 광진구 광나루로56길 85 (구의동) 6층,소매,중고 상품 소매,중고 상품 소매업,127.095680669092,37.53571340911,서울특별시 광진구 광나루로56길 85
박승철헤어스튜디오광나루역점,서울특별시 광진구 천호대로 813 (광장동) 2층,수리·개인,이용·미용,미용실,127.104105668795,37.5455630708925,서울특별시 광진구 천호대로 813
알파현수막,서울특별시 광진구 용마산로6길 19 (중곡동) 2층,과학·기술,인쇄·제품제작,명함/간판/광고물 제작,127.088794005175,37.5576821833119,서울특별시 광진구 용마산로6길 19
한인테리어,서울특별시 광진구 동일로24길 38-4 (화양동),과학·기술,전문 디자인,인테리어 디자인업,127.067049199734,37.5433388444974,서울특별시 광진구 동일로24길 38-4
리치,서울특별시 광진구 광나루로56길 85 (구의동) 6층,소매,가전·통신 소매,핸드폰 소매업,127.095680669092,37.53571340911,서울특별시 광진구 광나루로56길 85
두손종합상사,서울특별시 광진구 동일로 428 (중곡동) 1층,소매,기타 생활용품 소매,전기용품/조명장치 소매업,127.079031378716,37.5683018860247,서울특별시 광진구 동일로 428
연스시,서울특별시 광진구 아차산로 438 (구의동) 1층,음식,일식,일식 회/초밥,127.091293850808,37.5382297161484,서울특별시 광진구 아차산로 438
날일달월,서울특별시 광진구 아차산로78길 7 (광장동),음식,한식,백반/한정식,127.109276719188,37.5503687621613,서울특별시 광진구 아차산로78길 7
연세공인중개사사무소,서울특별시 광진구 천호대로111길 18 (중곡동) 1층,부동산,부동산 서비스,부동산 중개/대리업,127.082383635373,37.5571009166791,서울특별시 광진구 천호대로111길 18
애드센스,서울특별시 광진구 능동로28길 30 (능동),과학·기술,광고,광고 대행업,127.079031168873,37.5526866996682,서울특별시 광진구 능동로28길 30
약속행정사사무소,서울특별시 광진구 자양로 310 (구의동) 1층,과학·기술,법무관련 ,행정사,127.09326571618,37.5529320288631,서울특별시 광진구 자양로 310
에이포유이엔지,서울특별시 광진구 자양로 185 (구의동) 1층,과학·기술,기술 서비스,건축 설계 및 관련 서비스업,127.084613584653,37.5441250688237,서울특별시 광진구 자양로 185
비타민,서울특별시 광진구 광나루로 341 (군자동) 1층,음식,주점,일반 유흥 주점,127.067901552431,37.5484995861043,서울특별시 광진구 광나루로 341
영플레이스,서울특별시 광진구 동일로22길 81 (화양동),음식,주점,요리 주점,127.068770325933,37.5414331908943,서울특별시 광진구 동일로22길 81
청국장과보리밥,서울특별시 광진구 아차산로 431 (구의동) 1층,음식,한식,백반/한정식,127.090168585722,37.5386445468198,서울특별시 광진구 아차산로 431
네이키드바나나,서울특별시 광진구 능동로13길 19 (화양동) 6층,수리·개인,이용·미용,피부 관리실,127.070811945787,37.5428729350967,서울특별시 광진구 능동로13길 19
주영공인중개사사무소,서울특별시 광진구 자양로 292 (구의동) 1층,부동산,부동산 서비스,부동산 중개/대리업,127.092172538822,37.551617104258,서울특별시 광진구 자양로 292
마음생각연구소,서울특별시 광진구 아차산로30길 36 (자양동) 2층,교육,기타 교육,그 외 기타 교육기관,127.066702253042,37.5393985083357,서울특별시 광진구 아차산로30길 36
친구설비철물,서울특별시 광진구 자양로50길 54 (구의동) 1층,소매,철물·건설자재 소매,철물/공구 소매업,127.095285948276,37.5524609580148,서울특별시 광진구 자양로50길 54
지오넷,서울특별시 광진구 광나루로56길 85 (구의동) 7층,소매,가전·통신 소매,컴퓨터/소프트웨어 소매업,127.095680669092,37.53571340911,서울특별시 광진구 광나루로56길 85
폰가드,서울특별시 광진구 자양로15길 46 (자양동) 1층,소매,가전·통신 소매,핸드폰 소매업,127.081132591331,37.5354659489175,서울특별시 광진구 자양로15길 46
자올독서논술교습소,서울특별시 광진구 자양로3길 68 (자양동) 1층,교육,일반 교육,입시·교과학원,127.082958726317,37.5295602206512,서울특별시 광진구 자양로3길 68
메가캐롬클럽,서울특별시 광진구 자양로 126 (구의동) 1층,소매,오락용품 소매,운동용품 소매업,127.083601939359,37.5389451809746,서울특별시 광진구 자양로 126
최복치게임플레이,서울특별시 광진구 자양로18길 72-5 (구의동),예술·스포츠,유원지·오락,기타 오락관련 서비스업,127.087616581532,37.5382103724141,서울특별시 광진구 자양로18길 72-5
커피데이즈,서울특별시 광진구 아차산로 571 (광장동) 2층,음식,비알코올 ,카페,127.103667816626,37.5452714110297,서울특별시 광진구 아차산로 571
강희자얼큰손만두국,서울특별시 광진구 능동로49길 16 (중곡동) 1층,음식,기타 간이,김밥/만두/분식,127.082461360248,37.5646072629844,서울특별시 광진구 능동로49길 16
맛나통닭,서울특별시 광진구 뚝섬로30길 22 (자양동) 1층,음식,기타 간이,치킨,127.066405086634,37.535098141432,서울특별시 광진구 뚝섬로30길 22
한국액티브시니어협회,서울특별시 광진구 광나루로56길 85 (구의동),시설관리·임대,고용 알선,임시/일용 인력 공급업,127.095680669092,37.53571340911,서울특별시 광진구 광나루로56길 85
동방에프앤비,서울특별시 광진구 동일로22길 105 (화양동) 2층,음식,중식,중국집,127.069851384151,37.5409461329101,서울특별시 광진구 동일로22길 105
아이엠랩,서울특별시 광진구 용마산로8길 66 (중곡동) 3층,교육,일반 교육,입시·교과학원,127.091423542141,37.559243244149,서울특별시 광진구 용마산로8길 66
수제튀김,서울특별시 광진구 긴고랑로11길 30 (중곡동) 1층,음식,기타 간이,김밥/만두/분식,127.082077311763,37.5645412041868,서울특별시 광진구 긴고랑로11길 30
혜리;여수돌산갓김치,서울특별시 광진구 광나루로52길 104 (구의동) 1층,음식,한식,백반/한정식,127.0903997309,37.5391779489368,서울특별시 광진구 광나루로52길 104
헤어바이리아,서울특별시 광진구 면목로 187-1 (중곡동) 1층,수리·개인,이용·미용,미용실,127.082973208078,37.5699454473397,서울특별시 광진구 면목로 187-1
코바코,서울특별시 광진구 강변역로4길 10 (구의동) 1층,음식,일식,일식 회/초밥,127.093388186348,37.5353444204635,서울특별시 광진구 강변역로4길 10
국제행정법률,서울특별시 광진구 자양로13길 25 (자양동) 1층,과학·기술,법무관련 ,법무사,127.082779065501,37.5349921798093,서울특별시 광진구 자양로13길 25
웰녹,서울특별시 광진구 능동로 120 (화양동),소매,식료품 소매,건강보조식품 소매업,127.074695272526,37.5390559369817,서울특별시 광진구 능동로 120
워시라움,서울특별시 광진구 자양로 301 (구의동) 1층,수리·개인,세탁,세탁소,127.092580211816,37.5525302999751,서울특별시 광진구 자양로 301
서울낙업,서울특별시 광진구 동일로22길 117-23 (화양동) 1층,음식,일식,일식 회/초밥,127.070827711782,37.5416025765229,서울특별시 광진구 동일로22길 117-23
웨이광진지점,서울특별시 광진구 용마산로1길 73 (중곡동) 1층,시설관리·임대,운송장비 대여,자동차 대여업,127.084548337403,37.555937344878,서울특별시 광진구 용마산로1길 73
갓피플씨엠건축사사무소,서울특별시 광진구 아차산로78길 110 (광장동),과학·기술,기술 서비스,건축 설계 및 관련 서비스업,127.110164098632,37.5499789896385,서울특별시 광진구 아차산로78길 110
한국조달인증원,서울특별시 광진구 자양로 126 (구의동),과학·기술,본사·경영 컨설팅,경영 컨설팅업,127.083601939359,37.5389451809746,서울특별시 광진구 자양로 126
라엘헤어,서울특별시 광진구 뚝섬로 509-1 (자양동) 1층,수리·개인,이용·미용,미용실,127.067007388537,37.5357967117582,서울특별시 광진구 뚝섬로 509-1
공대오빠,서울특별시 광진구 능동로19길 27 (화양동) 3층,음식,기타 간이,김밥/만두/분식,127.072298310264,37.5471195624578,서울특별시 광진구 능동로19길 27
엠씨엠알,서울특별시 광진구 천호대로 536 (군자동) 6층,과학·기술,광고,광고 대행업,127.077579384823,37.5575320264864,서울특별시 광진구 천호대로 536
코지카커피,서울특별시 광진구 자양번영로4길 42-22 (자양동) 1층,음식,비알코올 ,카페,127.077192086215,37.5301910917077,서울특별시 광진구 자양번영로4길 42-22
보원당,서울특별시 광진구 동일로26길 62 (화양동) 1층,음식,기타 간이,김밥/만두/분식,127.069117612701,37.5444454404509,서울특별시 광진구 동일로26길 62
GS25S어린이대공원역점,서울특별시 광진구 능동로 210 (화양동) 1층,소매,종합 소매,편의점,127.074529783007,37.5478669245381,서울특별시 광진구 능동로 210
씨유광진,서울특별시 광진구 면목로 79 (중곡동),소매,종합 소매,편의점,127.078319654926,37.5608356486989,서울특별시 광진구 면목로 79
도시곳간,서울특별시 광진구 자양로15길 65 (자양동) 1층,소매,식료품 소매,반찬/식료품 소매업,127.080074397769,37.5350252048719,서울특별시 광진구 자양로15길 65
다올F&B,서울특별시 광진구 광장로 75 (광장동) 1층,음식,한식,백반/한정식,127.10542529598,37.5478257084212,서울특별시 광진구 광장로 75
조이헤어,서울특별시 광진구 천호대로129길 49 (중곡동) 1층,수리·개인,이용·미용,미용실,127.091841086623,37.5537500470261,서울특별시 광진구 천호대로129길 49
네일모해,서울특별시 광진구 구의로 29 (구의동) 1층,수리·개인,이용·미용,네일숍,127.089489452915,37.5405225134269,서울특별시 광진구 구의로 29
아이넷폴리스,서울특별시 광진구 아차산로51길 62 (구의동) 2층,예술·스포츠,유원지·오락,PC방,127.085006775035,37.5397309800589,서울특별시 광진구 아차산로51길 62
스피드메이트워커힐점,서울특별시 광진구 워커힐로 177 (광장동),수리·개인,자동차 수리·세차,자동차 정비소,127.111691182345,37.5586225695691,서울특별시 광진구 워커힐로 177
더원공인중개사사무소,서울특별시 광진구 동일로64길 13 (중곡동) 1층,부동산,부동산 서비스,부동산 중개/대리업,127.075502211856,37.5607595574253,서울특별시 광진구 동일로64길 13
이지브레인소프트,서울특별시 광진구 자양로 95 (자양동) 6층,교육,기타 교육,전문자격/고시학원,127.083182676309,37.5362207464812,서울특별시 광진구 자양로 95
형제기획,서울특별시 광진구 동일로46길 23-11 (군자동),과학·기술,인쇄·제품제작,명함/간판/광고물 제작,127.071298687492,37.5538065083789,서울특별시 광진구 동일로46길 23-11
자전거,서울특별시 광진구 능동로 49 (자양동) 1층,소매,오락용품 소매,자전거 소매업,127.0683763708,37.5358075196528,서울특별시 광진구 능동로 49
청학동냉면,서울특별시 광진구 광장로 51 (광장동) 1층,음식,한식,냉면/밀면,127.102796481978,37.5471570049891,서울특별시 광진구 광장로 51
포메인구의,서울특별시 광진구 아차산로 477 (구의동) 2층,음식,동남아시아,베트남식 전문,127.094669623116,37.5407245313983,서울특별시 광진구 아차산로 477
뉴발란스키즈,서울특별시 광진구 능동로 92 (자양동) 8층,소매,섬유·의복·신발 소매,유아용 의류 소매업,127.07119956705,37.538992451652,서울특별시 광진구 능동로 92
김밥,서울특별시 광진구 용마산로22길 20 (중곡동) 1층,음식,기타 간이,김밥/만두/분식,127.088032272984,37.5635331263534,서울특별시 광진구 용마산로22길 20
얼음왕국아이스크림할인점중곡238호점,서울특별시 광진구 용마산로5길 48 (중곡동) 1층,소매,종합 소매,슈퍼마켓,127.085117655108,37.5575095852063,서울특별시 광진구 용마산로5길 48
엠플러스애드,서울특별시 광진구 긴고랑로 8 (중곡동) 2층,과학·기술,광고,광고물 설계/제작업,127.077252961878,37.5638097885703,서울특별시 광진구 긴고랑로 8
잡곡천국,서울특별시 광진구 자양로15길 72 (자양동) 1층,소매,식료품 소매,곡물/곡분 소매업,127.079767595982,37.5351309408965,서울특별시 광진구 자양로15길 72
수안공방,서울특별시 광진구 뚝섬로62길 9 (자양동) 1층,교육,기타 교육,기타 기술/직업 훈련학원,127.087851703635,37.5328419091099,서울특별시 광진구 뚝섬로62길 9
마포갈비,서울특별시 광진구 군자로 149 (군자동) 1층,음식,한식,돼지고기 구이/찜,127.075655673146,37.554750758779,서울특별시 광진구 군자로 149
에이치앤비메디케어,서울특별시 광진구 뚝섬로34길 40 (자양동) 1층,소매,기타 생활용품 소매,주방/가정용품 소매업,127.068928622479,37.5332528858816,서울특별시 광진구 뚝섬로34길 40
스테이소담,서울특별시 광진구 능동로4길 73 (자양동) 4층,숙박,기타 숙박,기숙사/고시원,127.070896455498,37.5315023203664,서울특별시 광진구 능동로4길 73
힐링공간,서울특별시 광진구 아차산로51길 31 (구의동) 3층,수리·개인,욕탕·신체관리,마사지/안마,127.08483149593,37.5383329897641,서울특별시 광진구 아차산로51길 31
린스프린트,서울특별시 광진구 천호대로 536 (군자동) 6층,과학·기술,본사·경영 컨설팅,경영 컨설팅업,127.077579384823,37.5575320264864,서울특별시 광진구 천호대로 536
빈티지코인노래연습장,서울특별시 광진구 아차산로 370 (자양동) 1층,예술·스포츠,유원지·오락,노래방,127.084039896818,37.5364436513305,서울특별시 광진구 아차산로 370
리버클래시,서울특별시 광진구 능동로 92 (자양동) 6층,소매,섬유·의복·신발 소매,기타 의류 소매업,127.07119956705,37.538992451652,서울특별시 광진구 능동로 92
열린공인중개사사무소,서울특별시 광진구 천호대로111길 24 (중곡동) 1층,부동산,부동산 서비스,부동산 중개/대리업,127.08257348666,37.5573096335471,서울특별시 광진구 천호대로111길 24
호텔케이월드,서울특별시 광진구 동일로 90 (자양동) 지층,음식,기타 간이,피자,127.063383335939,37.5405796395057,서울특별시 광진구 동일로 90
위드미건대입구역점,서울특별시 광진구 아차산로 243 (화양동) 2층,음식,비알코올 ,카페,127.069156482222,37.5404090367117,서울특별시 광진구 아차산로 243
강명수아저씨네,서울특별시 광진구 자양로41길 7 (구의동) 1층,음식,한식,백반/한정식,127.089852730017,37.5497340687419,서울특별시 광진구 자양로41길 7
크로스핏라온,서울특별시 광진구 아차산로 294 (자양동) 1층,예술·스포츠,스포츠 서비스,헬스장,127.075520811816,37.5381793715033,서울특별시 광진구 아차산로 294
공간식당,서울특별시 광진구 아차산로31길 20-3 (화양동) 1층,음식,주점,요리 주점,127.069851282176,37.5418652047117,서울특별시 광진구 아차산로31길 20-3
토정순대국,서울특별시 광진구 광나루로56길 29 (구의동),음식,한식,국/탕/찌개류,127.096514325742,37.5369542342159,서울특별시 광진구 광나루로56길 29
에스앤제이종합상사,서울특별시 광진구 능동로 330 (중곡동) 4층,소매,의약·화장품 소매,화장품 소매업,127.080719955745,37.5589351270559,서울특별시 광진구 능동로 330
윤호네양꼬치,서울특별시 광진구 자양로13길 84 (자양동) 1층,음식,중식,중국집,127.080357406948,37.5331712392235,서울특별시 광진구 자양로13길 84
유신공인중개사사무소,서울특별시 광진구 자양로18길 20 (구의동) 1층,부동산,부동산 서비스,부동산 중개/대리업,127.084558220141,37.5375469554363,서울특별시 광진구 자양로18길 20
횡성한우,서울특별시 광진구 광나루로 533 (구의동) 1층,소매,식료품 소매,정육점,127.088845828052,37.5450588541434,서울특별시 광진구 광나루로 533
키호가,서울특별시 광진구 동일로 76 (자양동) 3층,과학·기술,전문 디자인,시각 디자인업,127.062672509903,37.5395107587895,서울특별시 광진구 동일로 76
희망공장,서울특별시 광진구 천호대로111길 7 (중곡동) 2층,과학·기술,전문 디자인,제품 디자인업,127.081877568582,37.5568356779701,서울특별시 광진구 천호대로111길 7
한국아로마테라피생활문화협동조합,서울특별시 광진구 동일로 356 (중곡동) 3층,교육,기타 교육,그 외 기타 교육기관,127.075909472156,37.5626098960877,서울특별시 광진구 동일로 356
샤올,서울특별시 광진구 뚝섬로 521 (자양동) 1층,수리·개인,이용·미용,미용실,127.068074371061,37.5355258105605,서울특별시 광진구 뚝섬로 521
건대빌리브부동산공인중개사무소,서울특별시 광진구 능동로 172 (화양동),부동산,부동산 서비스,부동산 중개/대리업,127.073964658766,37.5459792972265,서울특별시 광진구 능동로 172
허브종합인테리어,서울특별시 광진구 아차산로 329 (자양동) 1층,과학·기술,전문 디자인,인테리어 디자인업,127.079430225057,37.5377233439488,서울특별시 광진구 아차산로 329
피자스쿨,서울특별시 광진구 능동로13길 44 (화양동) 1층,음식,기타 간이,피자,127.07010897485,37.5438945998544,서울특별시 광진구 능동로13길 44
퍼스트,서울특별시 광진구 뚝섬로 468 (자양동) 7층,과학·기술,회계·세무,세무사,127.062175147486,37.5367586026359,서울특별시 광진구 뚝섬로 468
크로바공인중개사사무소,서울특별시 광진구 광나루로 545 (구의동) 1층,부동산,부동산 서비스,부동산 중개/대리업,127.089848656981,37.5463460822299,서울특별시 광진구 광나루로 545
피앤아이리서치,서울특별시 광진구 아차산로78길 44 (광장동),과학·기술,시장 조사,시장 조사 및 여론 조사업,127.10988340294,37.5507427688594,서울특별시 광진구 아차산로78길 44
하늘mobile,서울특별시 광진구 광나루로56길 85 (구의동) 6층,소매,가전·통신 소매,핸드폰 소매업,127.095680669092,37.53571340911,서울특별시 광진구 광나루로56길 85
해곤선생,서울특별시 광진구 긴고랑로7길 15 (중곡동),음식,중식,중국집,127.079331403068,37.5641594031617,서울특별시 광진구 긴고랑로7길 15
일리-엠,서울특별시 광진구 아차산로78길 75 (광장동),소매,섬유·의복·신발 소매,기타 의류 소매업,127.110971130975,37.5515889428079,서울특별시 광진구 아차산로78길 75
원바이크,서울특별시 광진구 긴고랑로 74 (중곡동),소매,중고 상품 소매,중고 상품 소매업,127.083894774449,37.5612484702142,서울특별시 광진구 긴고랑로 74
씨스페이스,서울특별시 광진구 영화사로 96 (구의동) 1층,소매,종합 소매,편의점,127.09644959893,37.5545062449211,서울특별시 광진구 영화사로 96
서울등심,서울특별시 광진구 아차산로 431 (구의동),음식,한식,백반/한정식,127.090168585722,37.5386445468198,서울특별시 광진구 아차산로 431
